{"item":[{"place_id":"101","name":"Viljandi M\u00e4nnim\u00e4e Selver","city":"Viljandi","address":"Riia mnt 35","country":"EE","postalcode":"71002","routingcode":"3201","availability":"E-P 9.00-22.00","description":"kassade vastas boksis","lat":"58.353","lng":"25.58428"},{"place_id":"102","name":"Tallinna Merimetsa Selver","city":"Tallinn","address":"Paldiski mnt 56","country":"EE","postalcode":"10614","routingcode":"3200","availability":"E-P 9.00-22.00","description":"peasissep\u00e4\u00e4sust vasakul","lat":"59.429986","lng":"24.698403"},{"place_id":"103","name":"Tallinna Lasnam\u00e4e Prisma","city":"Tallinn","address":"Mustakivi tee 17","country":"EE","postalcode":"13912","routingcode":"3201","availability":"E-P 24h","description":"vasakpoolse sissep\u00e4\u00e4su juures","lat":"59.44309","lng":"24.863091"},{"place_id":"106","name":"Tartu Anne Selver","city":"Tartu","address":"Kalda tee 43","country":"EE","postalcode":"50703","routingcode":"3201","availability":"E-P 8.00-22.00","description":"parempoolsest sissep\u00e4\u00e4sust otse koridori l\u00f5pus","lat":"58.368057","lng":"26.76733"},{"place_id":"107","name":"Tartu L\u00f5unakeskuse Rimi","city":"Tartu","address":"L\u00e4\u00e4neringtee 39","country":"EE","postalcode":"50501","routingcode":"3201","availability":"E-P 9.00-22.00","description":"Rimi ja liuv\u00e4lja vahel koridoris","lat":"58.359368","lng":"26.677294"},{"place_id":"108","name":"J\u00f5hvi Tsentraal","city":"J\u00f5hvi","address":"Keskv\u00e4ljak 4","country":"EE","postalcode":"41531","routingcode":"3201","availability":"E-P 9.00-21.00","description":"parklapoolsest 1. korruse sissep\u00e4\u00e4sust otse koridori l\u00f5pus","lat":"59.3582754313178","lng":"27.4140522251702"},{"place_id":"109","name":"Narva Astri Keskus","city":"Narva","address":"Tallinna mnt 41","country":"EE","postalcode":"20605","routingcode":"3201","availability":"E-P 9.00-22.00","description":"peasissep\u00e4\u00e4sust vasakule, eskalaatoritest m\u00f6\u00f6da, paremal","lat":"59.38108","lng":"28.17536"},{"place_id":"110","name":"Rakvere Kroonikeskus","city":"Rakvere","address":"F. G. Adoffi 11","country":"EE","postalcode":"44310","routingcode":"3201","availability":"E-P 9.00-22.00","description":"toidupoe vastas seina \u00e4\u00e4res","lat":"59.34867","lng":"26.36407"},{"place_id":"111","name":"J\u00f5geva Kaubahall","city":"J\u00f5geva","address":"Aia 3","country":"EE","postalcode":"48306","routingcode":"3201","availability":"E-P 7.30-20.00","description":"peasissep\u00e4\u00e4sust otse, kassade vastas treppide peal","lat":"58.745986","lng":"26.398087"},{"place_id":"112","name":"Paide Selver","city":"Paide","address":"Aiavilja 4","country":"EE","postalcode":"72712","routingcode":"3201","availability":"E-P 9.00-22.00","description":"peasissep\u00e4\u00e4sust paremal","lat":"58.88564","lng":"25.56387"},{"place_id":"113","name":"Rapla Maxima","city":"Rapla","address":"Tallinna mnt 50a","country":"EE","postalcode":"79514","routingcode":"3201","availability":"E-P 8.00-22.00","description":"sissep\u00e4\u00e4su juures vasakul","lat":"58.99827","lng":"24.79071"},{"place_id":"114","name":"Rannarootsi Keskus","city":"Haapsalu","address":"Rannarootsi tee 1","country":"EE","postalcode":"78302","routingcode":"3201","availability":"E-P 9.00-22.00","description":"peasissep\u00e4\u00e4sust otse, seina \u00e4\u00e4res vasakul","lat":"58.93679","lng":"23.5692"},{"place_id":"115","name":"K\u00e4rdla Selver","city":"K\u00e4rdla","address":"Rehem\u00e4e, Linnum\u00e4e k\u00fcla, P\u00fchalepa vald","country":"EE","postalcode":"92420","routingcode":"3201","availability":"E-P 9.00-22.00","description":"sissep\u00e4\u00e4sust otse koridori l\u00f5pus","lat":"58.98967","lng":"22.76325"},{"place_id":"116","name":"Kuressaare Saare Selver","city":"Kuressaare","address":"Tallinna 67","country":"EE","postalcode":"93815","routingcode":"3201","availability":"E-P 8.00-22.00","description":"parklapoolsest sissep\u00e4\u00e4sust otse, paremat k\u00e4tt","lat":"58.263197","lng":"22.508594"},{"place_id":"117","name":"P\u00e4rnu Kaubamajakas","city":"P\u00e4rnu","address":"Papiniidu 8","country":"EE","postalcode":"80042","routingcode":"3201","availability":"E-P 8:00-22:00","description":"peasissep\u00e4\u00e4sust vasakul","lat":"58.370127","lng":"24.550281"},{"place_id":"118","name":"Valga Selver","city":"Valga","address":"Raja 5","country":"EE","postalcode":"68203","routingcode":"3201","availability":"E-P 9.00-21.00","description":"kassade vastas boksis","lat":"57.77683","lng":"26.0274"},{"place_id":"119","name":"V\u00f5ru Kagukeskus","city":"V\u00f5ru","address":"Kooli 6","country":"EE","postalcode":"65606","routingcode":"3201","availability":"E-P 8.00 - 22.00","description":"peasissep\u00e4\u00e4sust otse toidupoeni, paremal","lat":"57.84595","lng":"27.00862"},{"place_id":"120","name":"Tallinna Lasnam\u00e4e Centrum (RIMI)","city":"Tallinn","address":"Mustakivi tee 13","country":"EE","postalcode":"13912","routingcode":"3202","availability":"E-P 8.00-22.00","description":"vasakpoolsest sissep\u00e4\u00e4sust otse","lat":"59.440384","lng":"24.864249"},{"place_id":"121","name":"Tallinna Haabersti Rimi","city":"Tallinn","address":"Haabersti 1","country":"EE","postalcode":"13516","routingcode":"3201","availability":"E-P 8.00-22.00","description":"peasissep\u00e4\u00e4su k\u00f5rval paremal","lat":"59.42395","lng":"24.643879"},{"place_id":"122","name":"Tallinna Torupilli Selver","city":"Tallinn","address":"Vesiv\u00e4rava 37","country":"EE","postalcode":"10152","routingcode":"3200","availability":"E-P 8.00-23.00","description":"vasakpoolse sissep\u00e4\u00e4su k\u00f5rval paremal","lat":"59.432174","lng":"24.780339"},{"place_id":"123","name":"P\u00f5ltsamaa Selver","city":"P\u00f5ltsamaa","address":"J\u00f5geva mnt. 1a","country":"EE","postalcode":"48105","routingcode":"3201","availability":"E-P 9.00-21.00","description":"1. korrusel trepi k\u00f5rval (l\u00e4bi Selveri)","lat":"58.654001","lng":"25.980397"},{"place_id":"125","name":"Tallinna Pirita Selver","city":"Tallinn","address":"Rummu tee 4","country":"EE","postalcode":"11911","routingcode":"3201","availability":"E-P 8.00-23.00","description":"infoleti k\u00f5rval","lat":"59.462617","lng":"24.826977"},{"place_id":"126","name":"Tallinna J\u00e4rve Keskus","city":"Tallinn","address":"P\u00e4rnu mnt. 238","country":"EE","postalcode":"11624","routingcode":"3201","availability":"E-L 10:00-21:00 P 10:00-19:00","description":"keskmise sissep\u00e4\u00e4su treppidest 2. korrusele, vasakule","lat":"59.393024","lng":"24.720719"},{"place_id":"127","name":"P\u00e4rnu \u00dclej\u00f5e Selver","city":"P\u00e4rnu","address":"Tallinna mnt 93a","country":"EE","postalcode":"80041","routingcode":"3201","availability":"E-P 9.00-22.00","description":"sissep\u00e4\u00e4sust otse koridori l\u00f5pus vasakut k\u00e4tt","lat":"58.40827","lng":"24.49411"},{"place_id":"128","name":"P\u00f5lva Coop Konsum","city":"P\u00f5lva","address":"Aasa 1","country":"EE","postalcode":"63304","routingcode":"3201","availability":"E-P 9.00-22.00","description":"sissep\u00e4\u00e4sust otse trepini ja vasakule","lat":"58.05169","lng":"27.04621"},{"place_id":"130","name":"P\u00e4rnu Keskus","city":"P\u00e4rnu","address":"Aida 7","country":"EE","postalcode":"80010","routingcode":"3202","availability":"E-L 10:00-20:00 P 10:00-16:00","description":"P\u00f5hja t\u00e4nava sissep\u00e4\u00e4su juures","lat":"58.3869692946867","lng":"24.5025442870331"},{"place_id":"131","name":"Kohtla-J\u00e4rve Vironia Keskus","city":"Kohtla-J\u00e4rve","address":"J\u00e4rvek\u00fcla tee 50","country":"EE","postalcode":"30321","routingcode":"3201","availability":"E-P 8.00-22.00","description":"keskmise sissep\u00e4\u00e4su juures trepi k\u00f5rval","lat":"59.398353","lng":"27.286869"},{"place_id":"133","name":"Laagri Maksimarket","city":"Tallinn","address":"P\u00e4rnu mnt 558a","country":"EE","postalcode":"76401","routingcode":"3201","availability":"E-P 9.00-22.00","description":"peasissep\u00e4\u00e4sust vasakul koridori l\u00f5pus","lat":"59.341309","lng":"24.612669"},{"place_id":"134","name":"Keila Selver","city":"Keila","address":"Piiri 12","country":"EE","postalcode":"76610","routingcode":"3201","availability":"E-P 8.00-22.00","description":"tanklapoolsest sissep\u00e4\u00e4sust vasakul","lat":"59.31335","lng":"24.42138"},{"place_id":"135","name":"Tartu Tasku","city":"Tartu","address":"Turu 2","country":"EE","postalcode":"51014","routingcode":"3201","availability":"E-L 10.00-21.00; P 10.00-18.00","description":"Turu t\u00e4nava sissep\u00e4\u00e4su k\u00f5rval liftide juures","lat":"58.377765","lng":"26.7304"},{"place_id":"136","name":"Tartu Rebase Rimi","city":"Tartu","address":"Rebase 10","country":"EE","postalcode":"50104","routingcode":"3201","availability":"E-P 8.00-22.00","description":"k\u00fcljeukse juures paremal","lat":"58.36828","lng":"26.73915"},{"place_id":"137","name":"Tallinna Tondi Selver","city":"Tallinn","address":"Tammsaare tee 62","country":"EE","postalcode":"11316","routingcode":"3201","availability":"E-P 9.00-23.00","description":"k\u00fcljesissep\u00e4\u00e4sust paremal","lat":"59.40319","lng":"24.71433"},{"place_id":"138","name":"Tallinna Mustika Prisma","city":"Tallinn","address":"Tammsaare tee 116 ","country":"EE","postalcode":"12918","routingcode":"3201","availability":"E-P 24h","description":"keskmisest sissep\u00e4\u00e4sust paremal","lat":"59.41041","lng":"24.68259"},{"place_id":"139","name":"Viimsi Kaubanduskeskus (Delice)","city":"Viimsi","address":"Randvere tee 6","country":"EE","postalcode":"74001","routingcode":"3201","availability":"E-P 9:00-22:00","description":"peasissep\u00e4\u00e4su juures paremal boksis","lat":"59.50642","lng":"24.83176"},{"place_id":"141","name":"Tallinna Smuuli Maxima","city":"Tallinn","address":"J.Smuuli tee 9","country":"EE","postalcode":"13628","routingcode":"3201","availability":"E-P 8.00-23.00","description":"peasissep\u00e4\u00e4sust otse kassadest m\u00f6\u00f6da","lat":"59.443656","lng":"24.822761"},{"place_id":"143","name":"T\u00fcri mini-Rimi","city":"T\u00fcri","address":"Paide 26","country":"EE","postalcode":"72211","routingcode":"3201","availability":"E-P 8.00-22.00","description":"peasissep\u00e4\u00e4su juures vasakul","lat":"58.812897","lng":"25.428972"},{"place_id":"144","name":"Elva mini-Rimi","city":"Elva","address":"Kesk 7","country":"EE","postalcode":"61504","routingcode":"3201","availability":"E-P 7.30-21.00","description":"kassade vastas","lat":"58.222359","lng":"26.410918"},{"place_id":"145","name":"M\u00e4rjamaa Konsum","city":"M\u00e4rjamaa","address":"P\u00e4rnu mnt 62","country":"EE","postalcode":"78304","routingcode":"3202","availability":"E-P 8.00-22.00","description":"sissep\u00e4\u00e4su juures","lat":"58.9053","lng":"24.4209"},{"place_id":"146","name":"Tallinna Kristiine Keskus 1.korrus","city":"Tallinn","address":"Endla 45","country":"EE","postalcode":"10615","routingcode":"3201","availability":"E-P 8.00-23.00","description":"Prisma iseteeninduskassade vastas SEB k\u00f5rval","lat":"59.427904","lng":"24.723621"},{"place_id":"147","name":"Tapa Grossi kauplus","city":"Tapa","address":"Jaama 1","country":"EE","postalcode":"45106","routingcode":"3201","availability":"E-P 8.00-22.00","description":"sissep\u00e4\u00e4sust vasakul","lat":"59.2645209","lng":"25.9631475"},{"place_id":"148","name":"T\u00f5rva Maxima","city":"T\u00f5rva","address":"Tamme 2","country":"EE","postalcode":"68605","routingcode":"3201","availability":"E-P 9.00-21.00","description":"sissep\u00e4\u00e4su juures paremal teises boksis","lat":"57.998047","lng":"25.93267"},{"place_id":"149","name":"Otep\u00e4\u00e4 Maxima","city":"Otep\u00e4\u00e4","address":"Valga mnt 1B","country":"EE","postalcode":"67403","routingcode":"3201","availability":"E-P 8.00-22.00","description":"peasissep\u00e4\u00e4sust paremal","lat":"58.056471","lng":"26.498981"},{"place_id":"150","name":"Tartu Eeden","city":"Tartu","address":"Kalda tee 1c","country":"EE","postalcode":"50703","routingcode":"3202","availability":"E-P 9.00-22.00","description":"peasissep\u00e4\u00e4sust otse koridori l\u00f5pus","lat":"58.3729179062078","lng":"26.7509365081787"},{"place_id":"152","name":"Rakvere P\u00f5hjakeskus","city":"Rakvere","address":"T\u00f5rrem\u00e4e, Rakvere vald","country":"EE","postalcode":"44415","routingcode":"3201","availability":"E-P 8.00-22.00","description":"peauksest otse, enne Rimi vasakul","lat":"59.3645786","lng":"26.3396777"},{"place_id":"153","name":"Tallinna Rocca Al Mare Keskus","city":"Tallinn","address":"Paldiski mnt 102","country":"EE","postalcode":"13522","routingcode":"3201","availability":"E-P 8.00-23.00","description":"parempoolsest sissep\u00e4\u00e4sust otse, vasakul eskalaatorite k\u00f5rval","lat":"59.4264385730493","lng":"24.6515393257141"},{"place_id":"154","name":"Tallinna Sikupilli Prisma","city":"Tallinn","address":"Tartu mnt 87","country":"EE","postalcode":"10112","routingcode":"3201","availability":"E-P 24h","description":"keskmisest sissep\u00e4\u00e4sust vasakul koridori l\u00f5pus","lat":"59.4264895","lng":"24.7831953"},{"place_id":"155","name":"Tallinna Solaris Keskus","city":"Tallinn","address":"Estonia pst. 9","country":"EE","postalcode":"10143","routingcode":"3201","availability":"E-P 9.00-23.00","description":"0-korrusel treppide k\u00f5rval","lat":"59.4336630818188","lng":"24.7509956359863"},{"place_id":"156","name":"Saku Selver","city":"Saku","address":"\u00dcksnurme tee 2","country":"EE","postalcode":"75501","routingcode":"3201","availability":"E-P 8.00-22.00","description":"sissep\u00e4\u00e4sust vasakul boksis","lat":"59.29191","lng":"24.654"},{"place_id":"157","name":"Kuressaare Kihelkonna mini-Rimi","city":"Kuressaare","address":"Kihelkonna mnt. 3","country":"EE","postalcode":"93810","routingcode":"3201","availability":"E-P 8.00-22.00","description":"peasissep\u00e4\u00e4sust otse, vasakul","lat":"58.264224","lng":"22.476001"},{"place_id":"158","name":"P\u00e4rnu Maxima XXX","city":"P\u00e4rnu","address":"Riia mnt 131","country":"EE","postalcode":"80011","routingcode":"3201","availability":"E-P 8.00-22.00","description":"parempoolsest sissep\u00e4\u00e4sust vasakul","lat":"58.374639","lng":"24.537342"},{"place_id":"160","name":"Tallinna Kaubamaja","city":"Tallinn","address":"Gonsiori 2","country":"EE","postalcode":"10143","routingcode":"3202","availability":"E-P 9.00-19.00","description":"Laikmaa t\u00e4nava sissep\u00e4\u00e4su juures","lat":"59.435436","lng":"24.756693"},{"place_id":"161","name":"Maardu Maxima","city":"Maardu","address":"Keemikute 2","country":"EE","postalcode":"74116","routingcode":"3201","availability":"E-P 8.00-23.00","description":"kassade vastas koridoris","lat":"59.473424","lng":"25.018496"},{"place_id":"162","name":"Viljandi Uku keskus","city":"Viljandi","address":"Tallinna tn. 41","country":"EE","postalcode":"71020","routingcode":"3201","availability":"E-P 8.00-22.00","description":"parklapoolse sissep\u00e4\u00e4su juures vasakul","lat":"58.369981","lng":"25.597795"},{"place_id":"163","name":"Tartu Raadi Maxima","city":"Tartu","address":"Narva mnt 112\/Peetri 26B","country":"EE","postalcode":"50303","routingcode":"3201","availability":"E-P 8.00-22.00","description":"parempoolsest sissep\u00e4\u00e4sust vasakul","lat":"58.391867","lng":"26.727928"},{"place_id":"164","name":"Tallinna Magistrali Keskus","city":"Tallinn","address":"S\u00f5pruse pst 201\/203","country":"EE","postalcode":"13419","routingcode":"3201","availability":"E-L 10.00 - 21.00 P 10.00 - 19.00","description":"0-korrusel sissep\u00e4\u00e4su juures","lat":"59.402373","lng":"24.697257"},{"place_id":"166","name":"Tartu Lembitu Konsum","city":"Tartu","address":"Lembitu tn. 2","country":"EE","postalcode":"50406","routingcode":"3201","availability":"E-P 9.00-22.00","description":"sissep\u00e4\u00e4sust otse koridori l\u00f5pus vasakul","lat":"58.3696914","lng":"26.7105768"},{"place_id":"167","name":"Haapsalu Rimi","city":"Haapsalu","address":"Jaama 32","country":"EE","postalcode":"90507","routingcode":"3201","availability":"E-P 8.00 - 22.00","description":"peasissep\u00e4\u00e4su juures vasakul","lat":"58.9390157","lng":"23.5404264"},{"place_id":"168","name":"V\u00f5ru Rimi","city":"V\u00f5ru","address":"J\u00fcri 85","country":"EE","postalcode":"65607","routingcode":"3201","availability":"E-P 8:00-22:00","description":"sissep\u00e4\u00e4sust paremal koridori l\u00f5pus","lat":"57.8344962","lng":"27.0101502"},{"place_id":"169","name":"Tartu Ringtee Selver","city":"Tartu","address":"Aardla 114","country":"EE","postalcode":"50415","routingcode":"3201","availability":"E-P 9.00-22.00","description":"sissep\u00e4\u00e4sust vasakul koridori l\u00f5pus","lat":"58.3532475","lng":"26.6860965"},{"place_id":"171","name":"Tartu Annelinna Prisma","city":"Tartu","address":"N\u00f5lvaku tee 2","country":"EE","postalcode":"50708","routingcode":"3201","availability":"E-P 8.00 - 23.00","description":"sissep\u00e4\u00e4sust paremal koridori l\u00f5pus","lat":"58.376902","lng":"26.7789076"},{"place_id":"172","name":"Tartu Aardla Selver","city":"Tartu","address":"V\u00f5ru 77","country":"EE","postalcode":"50112","routingcode":"3201","availability":"E-P 9.00-22.00","description":"sissep\u00e4\u00e4sust vasakul kassade vastas","lat":"58.357113","lng":"26.7203225"},{"place_id":"173","name":"P\u00e4rnu Maksimarket","city":"P\u00e4rnu","address":"Haapsalu mnt 43","country":"EE","postalcode":"88300","routingcode":"3201","availability":"E-P 9.00-22.00","description":"peasissep\u00e4\u00e4sust koridori l\u00f5pus vasakul","lat":"58.395588","lng":"24.4580709"},{"place_id":"174","name":"Raudalu Konsum","city":"Tallinn","address":"Viljandi mnt. 41a","country":"EE","postalcode":"11218","routingcode":"3201","availability":"E-P 8.00-22.00","description":"peasissep\u00e4\u00e4sust vasakul koridori l\u00f5pus","lat":"59.3660825","lng":"24.7594534"},{"place_id":"175","name":"Tallinna L\u00e4\u00e4nemere Selver","city":"Tallinn","address":"L\u00e4\u00e4nemere tee 28","country":"EE","postalcode":"13913","routingcode":"3201","availability":"E-P 9.00-22.00","description":"parklapoolsest sissep\u00e4\u00e4sust otse koridori l\u00f5pus","lat":"59.4528865","lng":"24.8756193"},{"place_id":"176","name":"Tartu Kaubamaja 0 korrus","city":"Tartu","address":"Riia 1","country":"EE","postalcode":"51004","routingcode":"3203","availability":"E-L 9.00-22.00, P 9.30-20.00","description":"0-korruse liftitamburis","lat":"58.377769","lng":"26.7278297"},{"place_id":"177","name":"Saue Maxima","city":"Saue","address":"Ladva 1a","country":"EE","postalcode":"76506","routingcode":"3201","availability":"E-P 8.00-22.00","description":"sissep\u00e4\u00e4su k\u00f5rval vasakul","lat":"59.3241357","lng":"24.5478683"},{"place_id":"178","name":"Muuga Maxima","city":"Muuga","address":"Altmetsa 1","country":"EE","postalcode":"74117","routingcode":"3201","availability":"E-P 8.00-22.00","description":"sissep\u00e4\u00e4sust otse koridori l\u00f5pus","lat":"59.4738638","lng":"24.9159885"},{"place_id":"179","name":"Peetri Selver","city":"Peetri","address":"Veesaare tee 2","country":"EE","postalcode":"75312","routingcode":"3201","availability":"E-P 8.00-23.00","description":"parempoolse sissep\u00e4\u00e4su k\u00f5rval paremal","lat":"59.40191","lng":"24.811021"},{"place_id":"180","name":"Tabasalu Rimi","city":"Tabasalu","address":"Klooga mnt 10b","country":"EE","postalcode":"76901","routingcode":"3201","availability":"E-P 8.00-22.00","description":"peasissep\u00e4\u00e4sust otse koridori l\u00f5pus paremal","lat":"59.429977","lng":"24.5436835"},{"place_id":"181","name":"Narva Prisma","city":"Narva","address":"Kangelaste prospekt 29","country":"EE","postalcode":"20607","routingcode":"3201","availability":"E-P 24h","description":"vasakpoolse sissep\u00e4\u00e4su juures","lat":"59.3864948","lng":"28.1771884"},{"place_id":"183","name":"J\u00fcri Konsum","city":"J\u00fcri","address":"Aruk\u00fcla tee 29","country":"EE","postalcode":"75301","routingcode":"3201","availability":"E-P 9.00-22.00","description":"peasissep\u00e4\u00e4sust vasakul","lat":"59.3582061","lng":"24.912778"},{"place_id":"184","name":"J\u00f5hvi Grossi kpl","city":"J\u00f5hvi","address":"Tartu mnt 15a","country":"EE","postalcode":"41538","routingcode":"3201","availability":"E-P 8.00-22.00","description":"sissep\u00e4\u00e4su juures vasakul","lat":"59.353416","lng":"27.41161"},{"place_id":"185","name":"Tallinna Kadaka Selver","city":"Tallinn","address":"Kadaka tee 56A","country":"EE","postalcode":"12915","routingcode":"3201","availability":"E-P 8.00-23.00","description":"sissep\u00e4\u00e4sust vasakul boksis","lat":"59.4125374","lng":"24.6669259"},{"place_id":"187","name":"Tallinna \u00dclemiste keskus","city":"Tallinn","address":"Suur-S\u00f5jam\u00e4e 4","country":"EE","postalcode":"11415","routingcode":"3202","availability":"E-P 8.00-22.00","description":"\u00dclemiste jaama poolse sissep\u00e4\u00e4su juures","lat":"59.4227","lng":"24.79166"},{"place_id":"188","name":"Tallinna Stroomi Keskus","city":"Tallinn","address":"Tuulemaa 20","country":"EE","postalcode":"10315","routingcode":"3201","availability":"E-P 8.00-23.00","description":"peasissep\u00e4\u00e4sust paremal eskalaatorite taga","lat":"59.4472692","lng":"24.6926484"},{"place_id":"189","name":"P\u00e4rnu Mai Selver","city":"P\u00e4rnu","address":"Papiniidu 42","country":"EE","postalcode":"80042","routingcode":"3202","availability":"E-P 8.00-22.00","description":"vasakpoolse sissep\u00e4\u00e4su juures paremal","lat":"58.3688","lng":"24.5457"},{"place_id":"190","name":"Rapla Selver","city":"Rapla","address":"Tallinna maantee 4","country":"EE","postalcode":"79511","routingcode":"3201","availability":"E-P 9.00-22.00","description":"Tallinna maantee poolse sissep\u00e4\u00e4su juures","lat":"59.0085213","lng":"24.7942433"},{"place_id":"191","name":"Viljandi Turu Konsum","city":"Viljandi","address":"Turu 16","country":"EE","postalcode":"71003","routingcode":"3201","availability":"E-L 8-20; P 9-17","description":"sissep\u00e4\u00e4sust vasakul kassade vastas","lat":"58.3665","lng":"25.5929"},{"place_id":"192","name":"Viimsi Keskus (Selver)","city":"Viimsi","address":"S\u00f5pruse tee 15","country":"EE","postalcode":"74001","routingcode":"3202","availability":"E-P 8.00-23.00","description":"parempoolse sissep\u00e4\u00e4su juures paremal","lat":"59.5048","lng":"24.82766"},{"place_id":"193","name":"Tallinna Priisle Maxima XXX","city":"Tallinn","address":"Linnam\u00e4e tee 57","country":"EE","postalcode":"13911","routingcode":"3201","availability":"E-P 24h","description":"vasakpoolse sissep\u00e4\u00e4su k\u00f5rval","lat":"59.4499662","lng":"24.8799884"},{"place_id":"194","name":"Tallinna Vilde tee Maxima XX","city":"Tallinn","address":"Vilde tee 77","country":"EE","postalcode":"12912","routingcode":"3201","availability":"E-P 8.00-22.00","description":"peasissep\u00e4\u00e4sust paremal koridori l\u00f5pus","lat":"59.4025214","lng":"24.6856175"},{"place_id":"195","name":"Tallinna Mustam\u00e4e Keskus","city":"Tallinn","address":"A. H. Tammsaare tee 104a","country":"EE","postalcode":"12918","routingcode":"3202","availability":"E-P 08.00-22.00","description":"sissep\u00e4\u00e4sust paremal travellaatoritest m\u00f6\u00f6da vasakul","lat":"59.4084844","lng":"24.6902775"},{"place_id":"196","name":"Tartu Veeriku Selver","city":"Tartu","address":"Vitamiini 1","country":"EE","postalcode":"51014","routingcode":"3202","availability":"E-P 9.00-22.00","description":"keskmisest sissep\u00e4\u00e4sust paremal","lat":"58.3763183","lng":"26.6966521"},{"place_id":"198","name":"Ahtme Maxima","city":"Kohtla-J\u00e4rve","address":"Puru tee 77","country":"EE","postalcode":"31023","routingcode":"3201","availability":"E-P 8.00-22.00","description":"sissep\u00e4\u00e4su juures otse","lat":"59.3379116","lng":"27.4202924"},{"place_id":"199","name":"Tallinna K\u00e4rberi Selver","city":"Tallinn","address":"K. K\u00e4rberi 20\/20a","country":"EE","postalcode":"13812","routingcode":"3201","availability":"E-P 8.00-22.00","description":"K\u00e4rberi t\u00e4nava poolse sissep\u00e4\u00e4su juures vasakul","lat":"59.4453939","lng":"24.8829749"},{"place_id":"200","name":"Tallinna Stockmann","city":"Tallinn","address":"Liivalaia 53","country":"EE","postalcode":"10145","routingcode":"3201","availability":"E-P 10.00-20.00","description":"5. korrusel Euroapteegi k\u00f5rval","lat":"59.4323826","lng":"24.7615277"},{"place_id":"202","name":"J\u00f5geva Pae Konsum","city":"J\u00f5geva","address":"Aia 33","country":"EE","postalcode":"48304","routingcode":"3201","availability":"E-P 8.00-20.00","description":"peasissep\u00e4\u00e4sust paremal","lat":"58.7431561","lng":"26.3752539"},{"place_id":"203","name":"Laagri Selver","city":"Tallinn","address":"P\u00e4rnu mnt. 554","country":"EE","postalcode":"10916","routingcode":"3201","availability":"E-P 8.00-23.00","description":"P\u00e4rnu mnt poolsest sissep\u00e4\u00e4sust vasakul","lat":"59.3530381","lng":"24.6283013"},{"place_id":"204","name":"Tallinna T\u00e4hesaju Selver","city":"Tallinn","address":"T\u00e4hesaju tee 1","country":"EE","postalcode":"13917","routingcode":"3201","availability":"E-P 8.00-22.00","description":"Varraku t\u00e4nava poolse sissep\u00e4\u00e4su juures paremal","lat":"59.4417","lng":"24.8493754"},{"place_id":"205","name":"Kuusalu Grossi kpl","city":"Kuusalu","address":"M\u00e4e 1","country":"EE","postalcode":"74619","routingcode":"3201","availability":"E-P 8.00-22.00","description":"sissep\u00e4\u00e4sust vasakul","lat":"59.446728","lng":"25.4442171000001"},{"place_id":"206","name":"Tallinna Marja Grossi kpl","city":"Tallinn","address":"Mustam\u00e4e tee 41","country":"EE","postalcode":"10616","routingcode":"3201","availability":"E-P 9.00-22.00","description":"sissep\u00e4\u00e4su k\u00f5rval paremal","lat":"59.4220076","lng":"24.6997633"},{"place_id":"207","name":"Loo Grossi kpl","city":"Loo","address":"Saha tee 9","country":"EE","postalcode":"74201","routingcode":"3201","availability":"E-P 9.00-22.00","description":"sissep\u00e4\u00e4sust paremal \u00fcmber nurga","lat":"59.4344797","lng":"24.9473245"},{"place_id":"208","name":"Tallinna Balti Jaama Turg","city":"Tallinn","address":"Kopli 1","country":"EE","postalcode":"10411","routingcode":"3201","availability":"E-R 6.30-23.00 L-P 9.00-21.00","description":"0-korrusel MyFitnessi k\u00f5rval boksis","lat":"59.4410655","lng":"24.736339"},{"place_id":"209","name":"Elva Maxima","city":"Elva","address":"Valga maantee 5","country":"EE","postalcode":"61504","routingcode":"3202","availability":"E-P 9.00-22.00","description":"peasissep\u00e4\u00e4sust otse kassade vastas boksis","lat":"58.2207746","lng":"26.4049557"},{"place_id":"210","name":"Tartu Kvartal","city":"Tartu","address":"Riia 2","country":"EE","postalcode":"51004","routingcode":"3202","availability":" E-L 9.00-22.00 P 9.00-20.00","description":"0-korrusel liftide vastas","lat":"58.3772958","lng":"26.7287443"},{"place_id":"211","name":"Tartu Saare Maxima","city":"Tartu","address":"Anne 57","country":"EE","postalcode":"50703","routingcode":"3203","availability":"E-P 8.00-22.00","description":"sissep\u00e4\u00e4sust paremal, viimases vasakpoolses boksis","lat":"58.3750558","lng":"26.7564363"},{"place_id":"212","name":"Tartu Vahi Selver","city":"Tartu","address":"Vahi 62","country":"EE","postalcode":"50304","routingcode":"3201","availability":"E-P 9.00-22.00","description":"sissep\u00e4\u00e4sust paremal boksis","lat":"58.4016999","lng":"26.7176241"},{"place_id":"213","name":"Tallinna Kakum\u00e4e Selver","city":"Tallinn","address":"Rannam\u00f5isa tee 6e","country":"EE","postalcode":"13516","routingcode":"3202","availability":"E-P 8.00-22.00","description":"maa-aluse parkla sissep\u00e4\u00e4su juures","lat":"59.428124","lng":"24.6270019999999"},{"place_id":"214","name":"Tallinna Hiiu Rimi","city":"Tallinn","address":"P\u00e4rnu mnt. 386","country":"EE","postalcode":"11612","routingcode":"3201","availability":"E-P 8.00 - 22.00","description":"sissep\u00e4\u00e4sust paremal","lat":"59.382773","lng":"24.6641285"},{"place_id":"215","name":"Tallinna Viru Keskus","city":"Tallinn","address":"Viru v\u00e4ljak 4\/6","country":"EE","postalcode":"10151","routingcode":"3202","availability":"E-P 9:00-22:00","description":"-1. korrusel Toidumaailma kassade juures, eskalaatorite all","lat":"59.4360994","lng":"24.7565528"},{"place_id":"216","name":"Tallinna Pirita Keskus","city":"Tallinn","address":"Meriv\u00e4lja tee 24","country":"EE","postalcode":"11911","routingcode":"3202","availability":"E-P 9.00 -22.00","description":"peasissep\u00e4\u00e4sust vasakul","lat":"59.4686","lng":"24.8349"},{"place_id":"217","name":"Keila Grossi kpl","city":"Keila","address":"Piiri 5","country":"EE","postalcode":"76610","routingcode":"3202","availability":"E-P 8.00 -22.00","description":"sissep\u00e4\u00e4su k\u00f5rval paremal","lat":"59.3125","lng":"24.4174"},{"place_id":"218","name":"Tartu S\u00f5brakeskus","city":"Tartu","address":"V\u00f5ru 55F","country":"EE","postalcode":"50111","routingcode":"3201","availability":"E-T 8:00-19:00 K-R 8:00-22:00 L 10:00-22:00 P 12:00-22:00","description":"peasissep\u00e4\u00e4sust otse koridori seina \u00e4\u00e4res paremal","lat":"58.3649857","lng":"26.7193472"},{"place_id":"219","name":"Maardu P\u00e4rli Keskus","city":"Maardu","address":"Nurga 3","country":"EE","postalcode":"74113","routingcode":"3201","availability":"E-P 9.00 - 22.00","description":"peasissep\u00e4\u00e4su juures;","lat":"59.487","lng":"25.0192"},{"place_id":"220","name":"Tallinna Lasnam\u00e4e Maksimarket","city":"Tallinn","address":"J.Smuuli tee 43","country":"EE","postalcode":"11415","routingcode":"3203","availability":"E-P 8:00-22:00","description":"vasakpoolse sissep\u00e4\u00e4su juures","lat":"59.428","lng":"24.8385"},{"place_id":"221","name":"Rakvere Vaala Keskus","city":"Rakvere","address":"L\u00f5\u00f5tspilli 2","country":"EE","postalcode":"44313","routingcode":"3201","availability":"E-P 9.00-22.00","description":"peasissep\u00e4\u00e4sust vasakul koridoris","lat":"59.3548","lng":"26.3837"},{"place_id":"223","name":"Auriga Keskus","city":"Kuressaare","address":"Tallinna 88","country":"EE","postalcode":"93851","routingcode":"3201","availability":"E-P 9.00-22.00","description":"peasissep\u00e4\u00e4sust otse koridori l\u00f5pus","lat":"58.2654","lng":"22.5161"},{"place_id":"224","name":"P\u00e4rnu Port Artur 2","city":"P\u00e4rnu","address":"Lai 11","country":"EE","postalcode":"80010","routingcode":"3203","availability":"E-P 9.00-22.00","description":"0-korrusel eskalaatorite k\u00f5rval","lat":"58.3874","lng":"24.504"},{"place_id":"225","name":"Tallinna Arsenali Keskus","city":"Tallinn","address":"Erika 14","country":"EE","postalcode":"10416","routingcode":"3202","availability":"E-P 8.00-22.00","description":"Erika t\u00e4nava poolse sissep\u00e4\u00e4su juures","lat":"59.4509","lng":"24.7166"},{"place_id":"226","name":"Tallinna T1 Kaubanduskeskus","city":"Tallinn","address":"Peterburi tee 2","country":"EE","postalcode":"11415","routingcode":"3205","availability":"E-P 8.00-23.00","description":"0-korrusel \u00dclemiste jaama poolse travelaatori k\u00f5rval","lat":"59.4247","lng":"24.7952"},{"place_id":"227","name":"Tallinna Kristiine Keskus 2.korrus","city":"Tallinn","address":"Endla 45","country":"EE","postalcode":"10615","routingcode":"3202","availability":"E-P 8.00-21.00","description":"2. korrusel liftide juures","lat":"59.427904","lng":"24.723621"},{"place_id":"228","name":"Tallinna Astangu Rimi","city":"Tallinn","address":"Kotermaa tn 4","country":"EE","postalcode":"13519","routingcode":"3201","availability":"E-P 7.30 - 22.00","description":"peasissep\u00e4\u00e4sust paremal","lat":"59.4053","lng":"24.6163"},{"place_id":"229","name":"Tapa Konsum","city":"Tapa","address":"Kalmistu 3","country":"EE","postalcode":"45109","routingcode":"3202","availability":"E-P 8.00\u201322.00","description":"sissep\u00e4\u00e4sust vasakul","lat":"59.265","lng":"25.9666"},{"place_id":"230","name":"Tallinna Nautica Keskus","city":"Tallinn","address":"Ahtri 9","country":"EE","postalcode":"10151","routingcode":"3201","availability":"E-P 8.00-22.00","description":"parkla parempoolsest sissep\u00e4\u00e4sust vasakule, paremat k\u00e4tt","lat":"59.4415","lng":"24.7615"},{"place_id":"231","name":"Tallinna M\u00e4nniku Rimi","city":"Tallinn","address":"M\u00e4nniku tee 100","country":"EE","postalcode":"11215","routingcode":"3200","availability":"E-P 8.00-22.00","description":"peasissep\u00e4\u00e4sust vasakul","lat":"59.372058","lng":"24.716523"},{"place_id":"233","name":"Tallinna Kolde Selver","city":"Tallinn","address":"S\u00f5le tn 31","country":"EE","postalcode":"10321","routingcode":"3201","availability":"E-P 8.00-23.00","description":"vasakpoolsest sissep\u00e4\u00e4sust vasakul","lat":"59.4397905","lng":"24.7060144"},{"place_id":"234","name":"Tallinna Finest \u00e4rimaja","city":"Tallinn","address":"P\u00e4rnu mnt 22","country":"EE","postalcode":"10141","routingcode":"3201","availability":"E-P 7.30-22.00","description":"0-korrusel Rimi vastas eskalaatorite all","lat":"59.4315","lng":"24.7431"},{"place_id":"235","name":"Tallinna Nurmenuku Rimi","city":"Tallinn","address":"Ehitajate tee 107","country":"EE","postalcode":"13511","routingcode":"3200","availability":"E-P 8.00-22.00","description":"peasissep\u00e4\u00e4sust otse l\u00f5puni ja vasakule","lat":"59.414","lng":"24.6523"},{"place_id":"237","name":"\u00dclenurme Konsum","city":"\u00dclenurme","address":"V\u00f5ru mnt. 2","country":"EE","postalcode":"61714","routingcode":"3200","availability":"E-P 9.00-22.00","description":"sissep\u00e4\u00e4sust vasakul","lat":"58.3151","lng":"26.7221"},{"place_id":"238","name":"Kivi\u00f5li K5 keskus","city":"Kivi\u00f5li","address":"Metsa 3","country":"EE","postalcode":"43125","routingcode":"3200","availability":"E-P 8.00-21.00","description":"sissep\u00e4\u00e4sust paremal koridori l\u00f5pus","lat":"59.3569","lng":"26.9731"},{"place_id":"239","name":"R\u00e4pina Maxima","city":"R\u00e4pina","address":"Pargi 1","country":"EE","postalcode":"64505","routingcode":"3200","availability":"E-P 8.00-22.00","description":"sissep\u00e4\u00e4sust teine boks paremal","lat":"58.0974","lng":"27.4635"},{"place_id":"240","name":"Kehra Grossi kpl","city":"Kehra","address":"Kose maantee 7","country":"EE","postalcode":"74307","routingcode":"3200","availability":"E-P 7.00-22.00","description":"peasissep\u00e4\u00e4su k\u00f5rval paremal","lat":"59.3345","lng":"25.3308"},{"place_id":"242","name":"Kiili Maxima","city":"Kiili","address":"Vaela tee 4","country":"EE","postalcode":"75401","routingcode":"3200","availability":"E-P 9.00-22.00","description":"sissep\u00e4\u00e4sust otse, paremal boksis","lat":"59.3099","lng":"24.832"},{"place_id":"243","name":"Kohila Konsum","city":"Kohila","address":"L\u00f5una 2","country":"EE","postalcode":"79801","routingcode":"3200","availability":"E-P 9.00-22.00","description":"peasissep\u00e4\u00e4sust vasakul","lat":"59.1672","lng":"24.7475"},{"place_id":"244","name":"Viljandi Centrum","city":"Viljandi","address":"Tallinna 24","country":"EE","postalcode":"71008","routingcode":"3200","availability":"E-P 9.00-22.00","description":"parkla sissep\u00e4\u00e4sust otse koridori l\u00f5pus paremal","lat":"58.3678","lng":"25.5963"},{"place_id":"245","name":"Sauga Konsum","city":"Sauga","address":"Kuldnoka 1","country":"EE","postalcode":"85008","routingcode":"3200","availability":"E-P 9.00-22.00","description":"sissep\u00e4\u00e4su k\u00f5rval vasakul","lat":"58.429","lng":"24.4976"},{"place_id":"246","name":"Paikuse Konsum","city":"Paikuse","address":"P\u00e4rnade pst. 1","country":"EE","postalcode":"86602","routingcode":"3200","availability":"E-P 9.00-22.00","description":"peasissep\u00e4\u00e4sust otse koridori l\u00f5pus vasakul","lat":"58.3738","lng":"24.6176"},{"place_id":"247","name":"Imavere Alexela","city":"Imavere","address":"Paiaristi","country":"EE","postalcode":"72401","routingcode":"3200","availability":"E-P 24h","description":"tanklapoes","lat":"58.7458","lng":"25.7652"},{"place_id":"248","name":"Tartu Tuglase Rimi","city":"Tartu","address":"Friedebert Tuglase 19","country":"EE","postalcode":"51014","routingcode":"3200","availability":"E-R 9.00-21.00 L-P 9.00-20.00","description":"sissep\u00e4\u00e4sust vasakul","lat":"58.3851","lng":"26.6918"},{"place_id":"249","name":"Sillam\u00e4e Maxima XX","city":"Sillam\u00e4e","address":"Pavlovi tn 1a","country":"EE","postalcode":"40232","routingcode":"3200","availability":"E-P 8.00-22.00","description":"parklapoolsest sissep\u00e4\u00e4sust vasakul v\u00e4ikses koridoris","lat":"59.39175","lng":"27.77589"},{"place_id":"250","name":"Tallinna S\u00f5pruse Rimi","city":"Tallinn","address":"S\u00f5pruse pst. 174","country":"EE","postalcode":"13424","routingcode":"3200","availability":"E-P 8.00-22.00","description":"peasissep\u00e4\u00e4sust vasakul koridori l\u00f5pus","lat":"59.4142","lng":"24.70722"},{"place_id":"251","name":"Vana P\u00e4rnu Selver ABC","city":"P\u00e4rnu","address":"Haapsalu maantee 41","country":"EE","postalcode":"88317","routingcode":"3200","availability":"E-P 9.00-22.00","description":"peasissep\u00e4\u00e4su k\u00f5rval vasakul","lat":"58.39405","lng":"24.46125"},{"place_id":"252","name":"Viimsi Maxima","city":"Viimsi","address":"Pargi tee 22","country":"EE","postalcode":"74001","routingcode":"3200","availability":"E-P 8.00-22.00","description":"sissep\u00e4\u00e4sust paremal viimases boksis","lat":"59.5049","lng":"24.8295217"},{"place_id":"253","name":"Saue Rimi","city":"Saue","address":"Keskuse 11","country":"EE","postalcode":"76505","routingcode":"3201","availability":"E-R 7.30-22.00 L-P 8.00-22.00","description":"sissep\u00e4\u00e4su juures paremal","lat":"59.3237","lng":"24.5603"},{"place_id":"254","name":"Tallinna Tondiraba Maxima XX","city":"Tallinn","address":"Tondiraba 7","country":"EE","postalcode":"71391","routingcode":"3201","availability":"E-P 9.00-22.00","description":"sissep\u00e4\u00e4sust vasakul","lat":"59.450444","lng":"24.85457"},{"place_id":"255","name":"Tallinna S\u00fctiste tee Maxima X","city":"Tallinn","address":"J.S\u00fctiste tee 28","country":"EE","postalcode":"13411","routingcode":"3201","availability":"E-P 8:00-22:00","description":"Sissep\u00e4\u00e4su juures","lat":"59.3976126","lng":"24.6904631"},{"place_id":"256","name":"Tabasalu Keskus","city":"Tabasalu","address":"Kallaste 7","country":"EE","postalcode":"76901","routingcode":"3202","availability":"E-L 9.00-21.00 P 9.00-19.00","description":"teisel korrusel, sissep\u00e4\u00e4sust paremal","lat":"58.6668045","lng":"27.1597215"},{"place_id":"501","name":"P\u00f5lva Selver (valge)","city":"P\u00f5lva","address":"Jaama 12","country":"EE","postalcode":"63303","routingcode":"3204","availability":"E-P 9.00-21.00","description":"sissep\u00e4\u00e4su juures vasakul boksis","lat":"58.0637077","lng":"27.0689168"},{"place_id":"502","name":"Tartu S\u00f5bra Selver (valge)","city":"Tartu","address":"S\u00f5bra 41","country":"EE","postalcode":"50106","routingcode":"3207","availability":"E-P 9.00-22.00","description":"Turu t\u00e4nava sissep\u00e4\u00e4sust paremal","lat":"58.3640907","lng":"26.7386306"},{"place_id":"503","name":"V\u00f5ru Maksimarket (valge)","city":"V\u00f5ru","address":"J\u00fcri 83","country":"EE","postalcode":"65607","routingcode":"3202","availability":"E-P 9.00-22.00","description":"k\u00fclgsissep\u00e4\u00e4su juures paremal","lat":"57.8351896","lng":"27.0075905"},{"place_id":"504","name":"Vastseliina Konsum (valge)","city":"Vastseliina","address":"V\u00f5idu 21","country":"EE","postalcode":"65201","routingcode":"3202","availability":"E-P 9.00-21.00","description":"sissep\u00e4\u00e4su juures vasakul","lat":"57.7319806","lng":"27.2819984"},{"place_id":"505","name":"J\u00e4rvakandi Grossi kpl (valge)","city":"J\u00e4rvakandi","address":"Turu 1","country":"EE","postalcode":"79101","routingcode":"3204","availability":"E-P 9.00-21.00","description":"sissep\u00e4\u00e4su juures vasakul","lat":"58.7743373","lng":"24.815428"},{"place_id":"506","name":"Peetri Keskus (valge)","city":"Peetri","address":"K\u00fcti tee 4","country":"EE","postalcode":"75312","routingcode":"3202","availability":"E-P 9.00-22.00","description":"peasissep\u00e4\u00e4sust paremal","lat":"59.397629","lng":"24.8026356"},{"place_id":"507","name":"Kuressaare Wow keskus (valge)","city":"Kuressaare","address":"Merikotka 1","country":"EE","postalcode":"93810","routingcode":"3202","availability":"E-P 24h","description":"24\/7 fitnessi sisep\u00e4\u00e4su juures","lat":"58.2505601","lng":"22.4563205"},{"place_id":"508","name":"T\u00f5rvandi Konsum (valge)","city":"T\u00f5rvandi","address":"M\u00fc\u00fcrsepa 1","country":"EE","postalcode":"61715","routingcode":"3201","availability":"E-P 9.00-22.00","description":"sissep\u00e4\u00e4sust vasakul kassade vastas","lat":"58.3229904","lng":"26.708312"},{"place_id":"509","name":"P\u00e4rnu Turg (valge)","city":"P\u00e4rnu","address":"Suur-Sepa 18","country":"EE","postalcode":"80018","routingcode":"3201","availability":"E-P 8.00-22.00","description":"peasissep\u00e4\u00e4su juures","lat":"58.3822479","lng":"24.5072318"},{"place_id":"510","name":"Tartu Ujula Konsum (valge)","city":"Tartu","address":"Ujula 2","country":"EE","postalcode":"51008","routingcode":"3203","availability":"E-P 9.00-22.00","description":"k\u00fcljepealse sissep\u00e4\u00e4su juures","lat":"58.3864822","lng":"26.722064"},{"place_id":"511","name":"R\u00f5ngu Konsum (valge)","city":"R\u00f5ngu","address":"Tartu maantee 2","country":"EE","postalcode":"61001","routingcode":"3201","availability":"E,K-P 9.00-22.00 T 7.30-22.00","description":"peasissep\u00e4\u00e4sust paremal","lat":"58.1437193","lng":"26.2469359"},{"place_id":"512","name":"Tartu M\u00f5isavahe Konsum (valge)","city":"Tartu","address":"M\u00f5isavahe 34c","country":"EE","postalcode":"50708","routingcode":"3202","availability":"E-P 9.00-22.00","description":"sissep\u00e4\u00e4sust otse paremal","lat":"58.3721074","lng":"26.7799532"},{"place_id":"513","name":"Tartu Sepa Rimi (valge)","city":"Tartu","address":"Sepa 21","country":"EE","postalcode":"50105","routingcode":"3207","availability":"E-P 8.00-21.00","description":"Rimi sissep\u00e4\u00e4sust otse ja paremale","lat":"58.3492068","lng":"26.7373789"},{"place_id":"514","name":"Viljandi Vaksali Maxima (valge)","city":"Viljandi","address":"Vaksali 11b","country":"EE","postalcode":"71012","routingcode":"3201","availability":"E-P 8.00-22.00","description":"sissep\u00e4\u00e4sust otse paremat k\u00e4tt boksis","lat":"58.3618743","lng":"25.582566"},{"place_id":"515","name":"Haapsalu Uuem\u00f5isa Konsum (valge)","city":"Haapsalu","address":"Tallinna maantee 84","country":"EE","postalcode":"90401","routingcode":"3201","availability":"E-P 9.00-22.00","description":"peasissep\u00e4\u00e4sust otse vasakul","lat":"58.9406441","lng":"23.5802523"},{"place_id":"516","name":"Tallinna Linnam\u00e4e Konsum (valge)","city":"Tallinn","address":"Linnam\u00e4e tee 3","country":"EE","postalcode":"13912","routingcode":"3203","availability":"E-P 8.00-22.00","description":"peasissep\u00e4\u00e4sust vasakul koridori l\u00f5pus","lat":"59.4490504","lng":"24.8611858"},{"place_id":"517","name":"Paide Maxima (valge)","city":"Paide","address":"P\u00e4rnu 63","country":"EE","postalcode":"72712","routingcode":"3202","availability":"E-L 8.00-22.00 P 9.00-22.00","description":"sissep\u00e4\u00e4su k\u00f5rval vasakul","lat":"58.8866591","lng":"25.5562366"},{"place_id":"518","name":"Sindi Konsum (valge)","city":"Sindi","address":"Jaama 8","country":"EE","postalcode":"86705","routingcode":"3201","availability":"E-P 9.00-22.00","description":"sissep\u00e4\u00e4sust koridori l\u00f5pus vasakul","lat":"58.4047616","lng":"24.6494888"},{"place_id":"519","name":"Tallinna T\u00f6\u00f6stuse Rimi (valge)","city":"Tallinn","address":"T\u00f6\u00f6stuse 103","country":"EE","postalcode":"10416","routingcode":"3203","availability":"E-P 8.00-22.00","description":"sissep\u00e4\u00e4sust vasakul koridori l\u00f5pus boksis","lat":"59.453478","lng":"24.7027841"},{"place_id":"520","name":"Tallinna Marienthali Selver (valge)","city":"Tallinn","address":"Mustam\u00e4e tee 16","country":"EE","postalcode":"10617","routingcode":"3202","availability":"E-P 8.00-22.00","description":"Mustam\u00e4e tee sissep\u00e4\u00e4sust vasakul boksis","lat":"59.422443","lng":"24.6950333"},{"place_id":"521","name":"Kunda Grossi kpl (valge)","city":"Kunda","address":"Kasem\u00e4e 12","country":"EE","postalcode":"44107","routingcode":"3204","availability":"E-P 8.00-22.00","description":"sissep\u00e4\u00e4su k\u00f5rval paremal","lat":"59.5004631","lng":"26.5162288"},{"place_id":"522","name":"Kadrina Grossi kpl (valge)","city":"Kadrina","address":"Viru 9","country":"EE","postalcode":"45201","routingcode":"3205","availability":"E-L 8.00-22.00 P 9.00-22.00","description":"sissep\u00e4\u00e4su juures paremal","lat":"59.3412946","lng":"26.1287123"},{"place_id":"523","name":"Laulasmaa Selver ABC (valge)","city":"Laulasmaa","address":"Kloogaranna tee 26","country":"EE","postalcode":"76702","routingcode":"3201","availability":"E-P 9.00-22.00","description":"sissep\u00e4\u00e4sust paremal teises boksis","lat":"59.3786","lng":"24.2364"},{"place_id":"524","name":"Tallinna S\u00f5pruse pst Maxima (valge)","city":"Tallinn","address":"S\u00f5pruse pst. 171","country":"EE","postalcode":"13413","routingcode":"3201","availability":"E-P 8.00-22.00","description":"sissep\u00e4\u00e4sust paremal","lat":"59.407376","lng":"24.7024012"},{"place_id":"525","name":"Mustvee konsum (valge)","city":"Mustvee","address":"Tartu 3","country":"EE","postalcode":"49604","routingcode":"3201","availability":"E-P 8.00-20.00","description":"peasissep\u00e4\u00e4sust vasakul","lat":"58.8478217","lng":"26.9426012"},{"place_id":"526","name":"Kilingi-N\u00f5mme Konsum (valge)","city":"Kilingi-N\u00f5mme","address":"P\u00e4rnu 37","country":"EE","postalcode":"86303","routingcode":"3205","availability":"E-P 8.00-21.00","description":"sissep\u00e4\u00e4su k\u00f5rval vasakul","lat":"58.1479636","lng":"24.9491385"},{"place_id":"527","name":"Tallinna Kollane keskus (valge)","city":"Tallinn","address":"\u00d5ism\u00e4e tee 107a","country":"EE","postalcode":"13515","routingcode":"3201","availability":"E-P 8.00-22.00","description":"Rimi sissep\u00e4\u00e4su juures","lat":"59.4117899","lng":"24.6354876"},{"place_id":"528","name":"Tallinna \u00d5ism\u00e4e Maxima XX (valge)","city":"Tallinn","address":"\u00d5ism\u00e4e tee 46","country":"EE","postalcode":"13512","routingcode":"3201","availability":"E-P 8.00-22.00","description":"Sissep\u00e4\u00e4sust paremal koridori l\u00f5pus","lat":"59.4113689","lng":"24.6448742"},{"place_id":"529","name":"V\u00f5hma Meie pood (valge)","city":"V\u00f5hma","address":"Tallinna 28a","country":"EE","postalcode":"70602","routingcode":"3202","availability":"E-L 10.00-21.00 P 10.00-19.00","description":"sissep\u00e4\u00e4su k\u00f5rval vasakul","lat":"58.6308361","lng":"25.5596124"},{"place_id":"530","name":"Tallinna Virbi Maxima (valge)","city":"Tallinn","address":"Virbi 12","country":"EE","postalcode":"13617","routingcode":"3201","availability":"E-P 8.00-22.00","description":"Laagna tee poolsest sissep\u00e4\u00e4sust vasakul","lat":"59.4408167","lng":"24.8438312"},{"place_id":"531","name":"Kuusalu Meie pood (valge)","city":"Kuusalu","address":"Kuusalu tee 39","country":"EE","postalcode":"74601","routingcode":"3201","availability":"E-R 10.00-19.00 L-P 10.00-18.00","description":"sissep\u00e4\u00e4su juures","lat":"59.4455321","lng":"25.4336275"},{"place_id":"533","name":"K\u00e4rdla Hiiu Konsum (valge)","city":"K\u00e4rdla","address":"Keskv\u00e4ljak 1","country":"EE","postalcode":"92413","routingcode":"3201","availability":"E-R 7.30-21.00 L-P 9.00-21.00","description":"sissep\u00e4\u00e4su juures","lat":"58.9985733","lng":"22.7471484"},{"place_id":"534","name":"P\u00e4rnu-Jaagupi kauplus (valge)","city":"P\u00e4rnu-Jaagupi","address":"P\u00e4rnu maantee 18","country":"EE","postalcode":"87201","routingcode":"3202","availability":"E-L 9.00-20.00 P 9.00-18.00","description":"sissep\u00e4\u00e4su k\u00f5rval paremal","lat":"58.6073712","lng":"24.5016135"},{"place_id":"535","name":"Orissaare bussijaam (valge)","city":"Orissaare","address":"Kuivastu mnt 26a","country":"EE","postalcode":"94601","routingcode":"3201","availability":"E-P 8.00-22.00","description":"sissep\u00e4\u00e4su k\u00f5rval","lat":"58.55912","lng":"23.08193"},{"place_id":"536","name":"Tallinna Pelgulinna Selver (valge)","city":"Tallinn","address":"S\u00f5le 51","country":"EE","postalcode":"10318","routingcode":"3201","availability":"E-P 8.00-23.00","description":"sissep\u00e4\u00e4sust vasakul, iseteeninduskassade vastas boksis","lat":"59.4448","lng":"24.6981"},{"place_id":"537","name":"Tallinna Sadam D-terminal (valge)","city":"Tallinn","address":"Lootsi 13","country":"EE","postalcode":"10151","routingcode":"3203","availability":"E-R 6.00-1.00 L 6.00-21.00 P 7.30-21.00","description":"Uus-Sadama t\u00e4nava poolse sissep\u00e4\u00e4su juures paremal","lat":"59.4433","lng":"24.7645"},{"place_id":"538","name":"Kose Grossi kpl pakimajake (valge)","city":"Kose ","address":"Kodu 2","country":"EE","postalcode":"75101","routingcode":"3201","availability":"E-P 24h","description":"parkimisplatsil","lat":"59.1841","lng":"25.1623"},{"place_id":"539","name":"T\u00fcri Grossi kpl pakimajake (valge)","city":"T\u00fcri","address":"Viljandi 13a","country":"EE","postalcode":"72212","routingcode":"3201","availability":"E-P 24h","description":"parkimisplatsil","lat":"58.8031","lng":"25.4273"},{"place_id":"540","name":"Paldiski Grossi kpl pakimajake (valge)","city":"Paldiski","address":"Rae 26","country":"EE","postalcode":"76805","routingcode":"3201","availability":"E-P 24h","description":"parkimisplatsil","lat":"59.3496","lng":"24.0576"},{"place_id":"541","name":"Tartu Raatuse Selver ABC (valge)","city":"Tartu","address":"Raatuse 20","country":"EE","postalcode":"50603","routingcode":"3203","availability":"E-P 9.00-22.00","description":"Raatuse t\u00e4nava sissep\u00e4\u00e4sust otse ja vasakule","lat":"58.3822","lng":"26.7306"},{"place_id":"542","name":"Antsla Konsum (valge)","city":"Antsla","address":"Kreutzwaldi 4a","country":"EE","postalcode":"66404","routingcode":"3203","availability":"E-P 9.00-21.00","description":"sissep\u00e4\u00e4su k\u00f5rval vasakul","lat":"57.8291","lng":"26.5292"},{"place_id":"543","name":"Leesi poemaja (valge)","city":"Leesi","address":"Poe","country":"EE","postalcode":"74704","routingcode":"3203","availability":"E-P 24h","description":"sissep\u00e4\u00e4su juures","lat":"59.6055621","lng":"25.498376"},{"place_id":"544","name":"Tallinna N\u00f5mme keskus (valge)","city":"Tallinn","address":"Jaama 2","country":"EE","postalcode":"11621","routingcode":"3202","availability":"E-P 24h","description":"keskuse K\u00f5vera tn poolses otsas, v\u00e4lisuksest sissep\u00e4\u00e4s kapiuksekoodiga","lat":"59.387679","lng":"24.683983"},{"place_id":"545","name":"Tallinna P\u00e4\u00e4sk\u00fcla Maxima (valge)","city":"Tallinn","address":"P\u00e4rnu mnt 536b","country":"EE","postalcode":"10915","routingcode":"3201","availability":"E-P 8.00-22.00","description":"sissep\u00e4\u00e4sust paremal","lat":"59.3584877","lng":"24.6299089"},{"place_id":"546","name":"T\u00f5rva Tikste Konsum (valge)","city":"T\u00f5rva","address":"Viljandi 28","country":"EE","postalcode":"68604","routingcode":"3208","availability":"E-P 9.00-22.00","description":"sissep\u00e4\u00e4sust vasakul koridori l\u00f5pus","lat":"58.00627","lng":"25.91203"},{"place_id":"547","name":"Valga Siili Konsum (valge)","city":"Valga","address":"A. Neulandi 2 ","country":"EE","postalcode":"68207","routingcode":"3201","availability":"E-P 9.00-22.00","description":"sissep\u00e4\u00e4sust otse koridori l\u00f5pus","lat":"57.77891","lng":"26.03511"},{"place_id":"548","name":"Tartu Raadi Grossi kpl (valge)","city":"Tartu","address":"Keskuse tee 2, Tila k\u00fcla","country":"EE","postalcode":"60532","routingcode":"3201","availability":"E-P 8.00-22.00","description":"sissep\u00e4\u00e4su k\u00f5rval paremal","lat":"58.408067","lng":"26.74423"},{"place_id":"549","name":"Tammiste Konsum (valge)","city":"Tammiste","address":"Kellukese tee 2","country":"EE","postalcode":"85009","routingcode":"3201","availability":"E-P 8.00-22.00","description":"sissep\u00e4\u00e4su k\u00f5rval vasakul","lat":"58.3888","lng":"24.6056"},{"place_id":"551","name":"Narva Fama Keskus (valge)","city":"Narva","address":"Fama p\u00f5ik 10","country":"EE","postalcode":"20303","routingcode":"3204","availability":"E-P 8.00-20.00","description":"vasakpoolse sissep\u00e4\u00e4su juures","lat":"59.37974","lng":"28.1851"},{"place_id":"552","name":"Haapsalu Kaubamaja Konsum (valge)","city":"Haapsalu","address":"Tallinna maantee 1","country":"EE","postalcode":"90507","routingcode":"3204","availability":"E-P 9.00-22.00","description":"peasissep\u00e4\u00e4sust vasakul","lat":"58.94028","lng":"23.5399"},{"place_id":"553","name":"J\u00f5hvi Pargi keskus (valge)","city":"J\u00f5hvi","address":"Puru tee 1","country":"EE","postalcode":"41534","routingcode":"3201","availability":"E-P 8.00-22.00","description":"peasissep\u00e4\u00e4sust vasakule m\u00f6\u00f6da koridori Sportlandi k\u00f5rval","lat":"59.3524","lng":"27.4178"},{"place_id":"554","name":"Keila Jaama kauplus (valge)","city":"Keila","address":"Jaama 1","country":"EE","postalcode":"76605","routingcode":"3201","availability":"E-P 8.00-21.00","description":"sissep\u00e4\u00e4sust paremal boksis","lat":"59.30674","lng":"24.4117"},{"place_id":"555","name":"Tartu Raadim\u00f5isa Konsum (valge)","city":"Tartu","address":"Kaupmehe 2","country":"EE","postalcode":"60532","routingcode":"3202","availability":"E-P 9.00-22.00","description":"sissep\u00e4\u00e4su juures vasakul","lat":"58.402802","lng":"26.7393"},{"place_id":"556","name":"Alatskivi Konsum (valge)","city":"Alatskivi","address":"Lossi 1a","country":"EE","postalcode":"60218","routingcode":"3201","availability":"E-P 9.00-21.00","description":"sissep\u00e4\u00e4su juures","lat":"58.60041","lng":"27.131011"},{"place_id":"557","name":"Sillam\u00e4e Maxima X Viru pst (valge)","city":"Sillam\u00e4e","address":"Viru puiestee 35","country":"EE","postalcode":"40233","routingcode":"3201","availability":"E-P 8.00-22.00","description":"peasissep\u00e4\u00e4sust paremal koridori l\u00f5pus","lat":"59.3909626","lng":"27.7907298"},{"place_id":"558","name":"Tallinna Kivila Gross (valge)","city":"Tallinn","address":"Kivila 26","country":"EE","postalcode":"13917","routingcode":"3202","availability":"E-P 7.00-23.00","description":"parklapoolse sissep\u00e4\u00e4su k\u00f5rval","lat":"59.4435844","lng":"24.8728398"},{"place_id":"559","name":"Mustla Konsum (valge)","city":"Mustla","address":"Posti 52a","country":"EE","postalcode":"69701","routingcode":"3203","availability":"E-P 9.00-20.00","description":"sissep\u00e4\u00e4su k\u00f5rval vasakul","lat":"58.2349721","lng":"25.8655528"},{"place_id":"560","name":"Viljandi Maksimarket (valge)","city":"Viljandi","address":"L\u00e4\u00e4ne 2","country":"EE","postalcode":"71013","routingcode":"3201","availability":"E-P 9.00-22.00","description":"sissep\u00e4\u00e4sust vasakul boksis","lat":"58.370585","lng":"25.5831243"},{"place_id":"561","name":"Kohtla-J\u00e4rve mini-Rimi (valge)","city":"Kohtla-J\u00e4rve","address":"P\u00f5hja allee 4","country":"EE","postalcode":"30323","routingcode":"3201","availability":"E-P 8.00-22.00","description":"sissep\u00e4\u00e4su k\u00f5rval","lat":"59.4071888","lng":"27.2847729"},{"place_id":"562","name":"Karksi-Nuia Konsumi pakimajake (valge)","city":"Karksi-Nuia","address":"Rahum\u00e4e 1","country":"EE","postalcode":"69103","routingcode":"3203","availability":"E-P 24h","description":"parkimisplatsil","lat":"58.1043","lng":"25.546"},{"place_id":"563","name":"Tartu Kivilinna Konsum (valge)","city":"Tartu","address":"Jaama 173","country":"EE","postalcode":"50605","routingcode":"3204","availability":"E-P 9.00-22.00","description":"sissep\u00e4\u00e4su k\u00f5rval paremal","lat":"58.3795582","lng":"26.7643174"},{"place_id":"564","name":"K\u00e4ina Konsum (valge)","city":"K\u00e4ina","address":"Spordi tn 9","country":"EE","postalcode":"92101","routingcode":"3202","availability":"E-P 9.00-22.00","description":"sissep\u00e4\u00e4sust vasakul","lat":"58.8307009","lng":"22.7745071"},{"place_id":"565","name":"Tartu M\u00e4rja Konsum (valge)","city":"Tartu","address":"Aisa tn 2","country":"EE","postalcode":"61406","routingcode":"3202","availability":"E-P 9.00-22.00","description":"sissep\u00e4\u00e4sust vasakul boksis","lat":"58.3608209","lng":"26.6511661"},{"place_id":"566","name":"Ahtme Grossi kpl (valge)","city":"Kohtla-J\u00e4rve","address":"Maleva 23","country":"EE","postalcode":"31025","routingcode":"3201","availability":"E-P 8.00-23.00","description":"sissep\u00e4\u00e4sust vasakul","lat":"59.3277333","lng":"27.4186563"},{"place_id":"567","name":"V\u00e4ike-Maarja Grossi kpl pakimajake (valge)","city":"V\u00e4ike-Maarja","address":"Pikk 9","country":"EE","postalcode":"46202","routingcode":"3201","availability":"E-P 24h","description":{},"lat":"59.1300195","lng":"26.2522398"},{"place_id":"568","name":"Tallinna Paasiku Grossi kpl (valge)","city":"Tallinn","address":"Paasiku 2a","country":"EE","postalcode":"13915","routingcode":"3201","availability":"E-P 9.00-22.00","description":"sissep\u00e4\u00e4su vastas","lat":"59.4483993","lng":"24.8449583"},{"place_id":"569","name":"Paide Maksimarketi pakimajake (valge)","city":"Paide","address":"Ringtee 2","country":"EE","postalcode":"72720","routingcode":"3202","availability":"E-P 24h","description":"parkimisplatsil","lat":"58.8867063","lng":"25.5400092"},{"place_id":"570","name":"Abja-Paluoja Konsumi pakimajake (valge)","city":"Abja-Paluoja","address":"P\u00e4rnu maantee 13","country":"EE","postalcode":"69403","routingcode":"3201","availability":"E-P 24h","description":"sissep\u00e4\u00e4su k\u00f5rval parkimisplatsil","lat":"58.1260619","lng":"25.3558588"},{"place_id":"571","name":"Tallinna Idakeskus (valge)","city":"Tallinn","address":"Punane 16b","country":"EE","postalcode":"13619","routingcode":"3201","availability":"E-P 10.00-20.00","description":"bowlingu sissep\u00e4\u00e4sust vasakul","lat":"59.431831","lng":"24.8226002"},{"place_id":"572","name":"Narva Kerese Keskus (valge)","city":"Narva","address":"Paul Kerese 3","country":"EE","postalcode":"20309","routingcode":"3204","availability":"E-P 8.00-22.00","description":"sissep\u00e4\u00e4sust vasakul, liftide juures","lat":"59.3758773","lng":"28.1914766"},{"place_id":"573","name":"Narva Tiimani Maxima (valge)","city":"Narva","address":"Albert-August Tiimani 20","country":"EE","postalcode":"21004","routingcode":"3201","availability":"E-P 8.00-22.00","description":"sissep\u00e4\u00e4su juures vasakul","lat":"59.3805948","lng":"28.1653201"},{"place_id":"574","name":"Tallinna Linnam\u00e4e Prisma (valge)","city":"Tallinn","address":"Linnam\u00e4e tee 95","country":"EE","postalcode":"13911","routingcode":"3202","availability":"E-P 9.00-22.00","description":"sissep\u00e4\u00e4su k\u00f5rval vasakul","lat":"59.4498625","lng":"24.8894486"},{"place_id":"575","name":"Tiskre Prisma (valge)","city":"Tiskre","address":"Liiva tee 61","country":"EE","postalcode":"76916","routingcode":"3201","availability":"E-P 9.00-22.00","description":"sissep\u00e4\u00e4su k\u00f5rval paremal","lat":"59.4317863","lng":"24.5631753"},{"place_id":"576","name":"J\u00f5geva Selver (valge)","city":"J\u00f5geva","address":"Kesk 4","country":"EE","postalcode":"48305","routingcode":"3202","availability":"E-P 9.00-21.00","description":"sissep\u00e4\u00e4su vastas olevas boksis","lat":"58.7483983","lng":"26.3980156"},{"place_id":"577","name":"Veskim\u00f6ldre kodukeskus (valge)","city":"Alliku","address":"Instituudi tee 132","country":"EE","postalcode":"76403","routingcode":"3201","availability":"E-P 9.00-21.00","description":"parempoolse sissep\u00e4\u00e4su juures","lat":"59.3577375","lng":"24.6017963"},{"place_id":"578","name":"Loksa Grossi kpl pakimajake (valge)","city":"Loksa","address":"Rohuaia 6","country":"EE","postalcode":"74806","routingcode":"3201","availability":"E-P 24h","description":{},"lat":"59.579214","lng":"25.7280064"},{"place_id":"579","name":"Miiduranna Konsum (valge)","city":"Tallinn","address":"Ranna tee 46a","country":"EE","postalcode":"12111","routingcode":"3201","availability":"E-P 9.00-22.00","description":"vasakpoolse sissep\u00e4\u00e4su juures paremal","lat":"59.4970837","lng":"24.8291062"},{"place_id":"580","name":"Tallinna Rotermanni 8 Galerii (valge)","city":"Tallinn","address":"Rotermanni 8","country":"EE","postalcode":"10111","routingcode":"3202","availability":"E-P 8.30-20.00","description":"Coca-cola Plaza poolses tamburis","lat":"59.4387046","lng":"24.7565758"},{"place_id":"581","name":"Audru bussiterminal (valge)","city":" Audru","address":"Lihula mnt 10\/\/12","country":"EE","postalcode":"88301","routingcode":"3202","availability":"E-P 6.00-23.00","description":"bussiterminalis","lat":"58.4225633","lng":"24.313264"},{"place_id":"582","name":"Rakvere Raja Grossi kpl (valge)","city":"Rakvere","address":"Ilu puiestee 2","country":"EE","postalcode":"44314","routingcode":"3201","availability":"E-P 9.00-22.00","description":"sissep\u00e4\u00e4su k\u00f5rval paremal","lat":"59.3516628","lng":"26.3421131"},{"place_id":"583","name":"Tallinna Kotka Selver (valge)","city":"Tallinn","address":"Kotka 12","country":"EE","postalcode":"11315","routingcode":"3201","availability":"E-P 9.00-22.00","description":"Kotka t\u00e4nava poolse sissep\u00e4\u00e4su juures","lat":"59.4196735","lng":"24.7295595"},{"place_id":"584","name":"Kohila Grossi kpl (valge)","city":"Kohila","address":"Viljandi mnt 3a","country":"EE","postalcode":"79805","routingcode":"3201","availability":"E-P 8.00-22.00","description":"sissep\u00e4\u00e4su k\u00f5rval paremal","lat":"59.1673633","lng":"24.7604175"},{"place_id":"585","name":"P\u00f5ltsamaa Grossi kpl pakimajake (valge)","city":"P\u00f5ltsamaa","address":"Tartu mnt 1a","country":"EE","postalcode":"48105","routingcode":"3204","availability":"E-P 24h","description":"parkimisplatsil","lat":"58.6528483","lng":"25.9817227"},{"place_id":"586","name":"J\u00e4rva-Jaani Grossi kpl pakimajake (valge)","city":"J\u00e4rva-Jaani","address":"Lai 23","country":"EE","postalcode":"73301","routingcode":"3204","availability":"E-P 24h","description":"parkimisplatsil","lat":"59.0383806","lng":"25.8839853"},{"place_id":"587","name":"V\u00e4ndra Grossi kpl pakimajake (valge)","city":"V\u00e4ndra","address":"P\u00e4rnu-Paide mnt 26","country":"EE","postalcode":"87701","routingcode":"3201","availability":"E-P 24h","description":"Parklas","lat":"58.6562671","lng":"25.0429449"},{"place_id":"588","name":"Liiva Konsumi pakimajake (valge)","city":"Liiva","address":"Liiva k\u00fcla, Muhu","country":"EE","postalcode":"94701","routingcode":"3202","availability":"E-P 24h","description":"turupoolsel parkimisplatsil","lat":"58.6062526","lng":"23.2324048"},{"place_id":"589","name":"Ihaste Konsumi pakimajake (valge)","city":"Ihaste","address":"Kasesalu tee 51","country":"EE","postalcode":"62220","routingcode":"3201","availability":"E-P 24h","description":"parkimisplatsil","lat":"58.3506499","lng":"26.7886259"},{"place_id":"590","name":"Kose-Uuem\u00f5isa Grossi kpl pakimajake (valge)","city":"Kose-Uuem\u00f5isa","address":"Kesk 1","country":"EE","postalcode":"75102","routingcode":"3201","availability":"E-P 24h","description":"parkimisplatsil","lat":"59.2048079","lng":"25.1042216"},{"place_id":"591","name":"\u00c4\u00e4sm\u00e4e Meie kpl pakimajake (valge)","city":"\u00c4\u00e4sm\u00e4e","address":"Kopli tee 1","country":"EE","postalcode":"76402","routingcode":"3201","availability":"E-P 24h","description":"parkimisplatsil","lat":"59.2428712","lng":"24.4992743"},{"place_id":"592","name":"Rapla Jaama Hepa pakimajake (valge)","city":"Rapla","address":"Viljandi mnt 124","country":"EE","postalcode":"79514","routingcode":"3202","availability":"E-P 24h","description":"tanklapoe taga","lat":"58.9907484","lng":"24.8339549"},{"place_id":"593","name":"Raasiku Meierei kpl pakimajake (valge)","city":"Raasiku","address":"Meierei 1","country":"EE","postalcode":"75203","routingcode":"3201","availability":"E-P 24h","description":"parkimisplatsil","lat":"59.3664906","lng":"25.1764077"},{"place_id":"594","name":"Suure-Jaani Konsum pakimajake (valge)","city":"Suure-Jaani","address":"P\u00e4rnu 3","country":"EE","postalcode":"71502","routingcode":"3201","availability":"E-P 24h","description":"parkimisplatsil","lat":"58.5362419","lng":"25.4651852"},{"place_id":"595","name":"Viiratsi Konsum (valge)","city":"Viiratsi","address":"Sakala 3b","country":"EE","postalcode":"70101","routingcode":"3205","availability":"E-P 9.00-20.00","description":"sissep\u00e4\u00e4sust paremal","lat":"58.3591845","lng":"25.6394539"},{"place_id":"596","name":"Tootsi Konsum (valge)","city":"Tootsi","address":"Kesk 7","country":"EE","postalcode":"87501","routingcode":"3204","availability":"E-P 9.00-20.00","description":"kaupluse sissep\u00e4\u00e4su k\u00f5rval boksis","lat":"58.5864036","lng":"24.7845512"},{"place_id":"597","name":"Avinurme Konsum (valge)","city":"Avinurme","address":"V\u00f5idu 18","country":"EE","postalcode":"42101","routingcode":"3201","availability":"E-R 9.00-20.00 L-P 9.00-19.00","description":"sissep\u00e4\u00e4su k\u00f5rval vasakul","lat":"58.9860893","lng":"26.869868"},{"place_id":"598","name":"Kehtna Konsum (valge)","city":"Kehtna","address":"Lasteaia 12","country":"EE","postalcode":"79001","routingcode":"3201","availability":"E-P 9.00-21.00","description":"teisel korrusel, koridori l\u00f5pus","lat":"58.9259288","lng":"24.871853"},{"place_id":"599","name":"P\u00f5lva bussijaam (valge)","city":"P\u00f5lva","address":"Kesk tn 41","country":"EE","postalcode":"63304","routingcode":"3204","availability":"E-P 6.00-19.00 ","description":"sissep\u00e4\u00e4su juures","lat":"58.0520456","lng":"27.0440419"},{"place_id":"600","name":"Laagri Rimi (valge)","city":"Tallinn","address":"P\u00e4rnu mnt 556a","country":"EE","postalcode":"76401","routingcode":"3202","availability":"E-P 8.00-22.00","description":"vasakpoolse sissep\u00e4\u00e4su k\u00f5rval paremal boksis","lat":"59.343249","lng":"24.6157546"},{"place_id":"601","name":"Kallaste AjaO (valge)","city":"Kallaste","address":"Oja 16","country":"EE","postalcode":"60103","routingcode":"3208","availability":"E-R 9.00-20.00 L-P 10.00-19.00","description":"sissep\u00e4\u00e4su juures","lat":"58.6608532","lng":"27.1610644"},{"place_id":"602","name":"Narva A1000 market (valge)","city":"Narva","address":"Albert-August Tiimani 1c","country":"EE","postalcode":"21004","routingcode":"3202","availability":"E-P 9.00-21.00","description":"sissep\u00e4\u00e4su juures","lat":"59.3749898","lng":"28.1639837"},{"place_id":"604","name":"Are Huvikeskus (valge)","city":"Are","address":"P\u00e4rivere tee 17","country":"EE","postalcode":"87301","routingcode":"3201","availability":"E-P 7.00-22.00","description":"sissep\u00e4\u00e4su juures","lat":"58.5188016","lng":"24.5653054"},{"place_id":"605","name":"Valtu Spordimaja (valge)","city":"Kaerepere","address":"Saare 11","country":"EE","postalcode":"79520","routingcode":"3201","availability":"E 9.00-22.00 T,N 7.00-22.00 K,R 10.00-22.00 L 10.00-20.00 P 12.00-19.00","description":"sissep\u00e4\u00e4su juures","lat":"58.9624725","lng":"24.8372493"},{"place_id":"606","name":"Ardu Kauplus (valge)","city":"Ardu","address":"Kesk tee 6b","country":"EE","postalcode":"75001","routingcode":"3201","availability":"E-P 10:00-20:00","description":"Sissep\u00e4\u00e4su juures","lat":"59.1001305","lng":"25.3593128"},{"place_id":"607","name":"Palamuse Konsum (valge)","city":"Palamuse","address":"Uus 14","country":"EE","postalcode":"49226","routingcode":"3202","availability":"E-R 8:00-20:00 L-P 10:00-20:00","description":"Sissep\u00e4\u00e4su juures","lat":"58.6854385","lng":"26.5856921"},{"place_id":"608","name":"Rapla Prisma (valge)","city":"Rapla","address":"Risti 1","country":"EE","postalcode":"79530","routingcode":"3201","availability":"E-P 8:00-23:00","description":"Sissep\u00e4\u00e4su juures","lat":"59.0108423","lng":"24.7953666"},{"place_id":"609","name":"Tori Konsum (valge)","city":"Tori","address":"P\u00e4rnu mnt 3","country":"EE","postalcode":"86801","routingcode":"3204","availability":"E-P 9:00-20:00","description":"Sissep\u00e4\u00e4su juures","lat":"58.4825326","lng":"24.8133269"},{"place_id":"610","name":"Lihula Meie kpl pakimajake (valge)","city":"Lihula","address":"Jaama 4","country":"EE","postalcode":"90303","routingcode":"3201","availability":"E-P 24h","description":"sissep\u00e4\u00e4su juures","lat":"58.68632","lng":"23.8342825"},{"place_id":"611","name":"Viimsi Rimi Market (valge)","city":"Viimsi","address":"Randvere tee 7a","country":"EE","postalcode":"74001","routingcode":"3203","availability":"E-P 9:00-22:00","description":"Sissep\u00e4\u00e4sust vasakul","lat":"59.5056099","lng":"24.8283803"},{"place_id":"612","name":"Tallinna Kari Gross (valge)","city":"Tallinn","address":"Kari 3","country":"EE","postalcode":"10311","routingcode":"3201","availability":"E-P 8:00-22:00","description":"Sissep\u00e4\u00e4su juures vasakul","lat":"59.4477233","lng":"24.6978558"},{"place_id":"613","name":"Aseri Vabaajakeskus (valge)","city":"Aseri","address":"Keskt\u00e4nav 22","country":"EE","postalcode":"43401","routingcode":"3201","availability":"E-R 8:00-20:00 L-P 12:00-17:00","description":"Sissep\u00e4\u00e4su juures","lat":"59.4506775","lng":"26.8614846"},{"place_id":"614","name":"M\u00e4etaguse Meie pood (valge)","city":"M\u00e4etaguse","address":"Kooli tee 7","country":"EE","postalcode":"41301","routingcode":"3201","availability":"E-P 10:00-20:00","description":"Sissep\u00e4\u00e4su juures","lat":"59.224559","lng":"27.2956707"},{"place_id":"615","name":"Koosa Teeninduskeskus (valge)","city":"Koosa","address":"Keskuse","country":"EE","postalcode":"60432","routingcode":"3201","availability":"E-P 24h","description":"Maja taga","lat":"58.5260164","lng":"27.076398"},{"place_id":"616","name":"Tallinna Tammsaare Grossi kpl (valge)","city":"Tallinn","address":"A. H. Tammsaare tee 93","country":"EE","postalcode":"12913","routingcode":"3201","availability":"E-L 9:00-22:00 P 9:00-20:00","description":"Sissep\u00e4\u00e4su juures","lat":"59.4059896","lng":"24.691326"},{"place_id":"617","name":"Siimusti kauplus (valge)","city":"Siimusti","address":"Toominga tn 9","country":"EE","postalcode":"48444","routingcode":"3201","availability":"E-P 10:00-20:00","description":"Sissep\u00e4\u00e4su k\u00f5rval","lat":"58.7284964","lng":"26.3373366"},{"place_id":"618","name":"J\u00f5hvi Maxima XX (valge)","city":"J\u00f5hvi","address":"Rakvere 29","country":"EE","postalcode":"41533","routingcode":"3202","availability":"E-P 8.00-22.00","description":"sissep\u00e4\u00e4sust vasakul boksis","lat":"59.3622302","lng":"27.4011843"},{"place_id":"619","name":"Kohtla-J\u00e4rve Keskallee Maxima X (valge)","city":"Kohtla-J\u00e4rve","address":"Keskallee 12","country":"EE","postalcode":"30322","routingcode":"3201","availability":"E-P 8.00-21.00","description":"sissep\u00e4\u00e4su juures","lat":"59.4023865","lng":"27.2848856"},{"place_id":"620","name":"Tallinna \u00d5ism\u00e4e 88 Maxima X (valge)","city":"Tallinn","address":"\u00d5ism\u00e4e tee 88","country":"EE","postalcode":"13513","routingcode":"3201","availability":"E-P 8:00-22:00","description":"Sissep\u00e4\u00e4sust paremal","lat":"59.4154902","lng":"24.6402813"},{"place_id":"621","name":"Tallinna Ehitajate Tee Maxima XXX (valge)","city":"Tallinn","address":"Ehitajate tee 148","country":"EE","postalcode":"13517","routingcode":"3201","availability":"E-P 24h","description":"teisest sissep\u00e4\u00e4sust vasakul","lat":"59.4211165","lng":"24.6498205"},{"place_id":"622","name":"Tartu Kvissentali Konsum (valge)","city":"Tartu","address":"Aruk\u00fcla tee 5","country":"EE","postalcode":"50303","routingcode":"3202","availability":"E-P 9.00-22.00","description":"Sissep\u00e4\u00e4sust vasakul ning kassade vastas paremal","lat":"58.399748","lng":"26.7082377"},{"place_id":"623","name":"Risti Bussijaam (valge)","city":"Risti","address":"Tallinna mnt 3a","country":"EE","postalcode":"90901","routingcode":"3204","availability":"E-P 8.00-22.00","description":"Sissep\u00e4\u00e4sust paremal","lat":"58.9986677","lng":"24.0588764"},{"place_id":"846","name":"PAKIPUNKT Lokuta kauplus","city":"Lokuta","address":"Lokuta k\u00fcla","country":"EE","postalcode":"79006","routingcode":"3200","availability":"E-R 9:30-17:30 L 10:00-14:00 P-","description":"Lokuta kauplus","lat":"58.7952066","lng":"24.9318988"},{"place_id":"847","name":"PAKIPUNKT Alavere Pood","city":"Alavere","address":"Oja 1","country":"EE","postalcode":"74401","routingcode":"3200","availability":"E-L 10.00-19.00 P 10.00-17.00","description":"Alavere Pood O\u00dc","lat":"59.2451092","lng":"25.3283804"},{"place_id":"848","name":"PAKIPUNKT P\u00f5lgaste Sinikalda pood","city":"P\u00f5lgaste","address":"Keskuse 1","country":"EE","postalcode":"63123","routingcode":"3201","availability":"E-L 10.00-19.00 P 10.00-17.00","description":"Sinikalda pood","lat":"57.9808859","lng":"26.8773489"},{"place_id":"849","name":"PAKIPUNKT Aruk\u00fcla Sinu pood","city":"Aruk\u00fcla","address":"P\u00f5llu 14a","country":"EE","postalcode":"75201","routingcode":"3200","availability":"E-P 10.00-22.00","description":"Sinu pood \/ Baziks O\u00dc","lat":"59.3656461","lng":"25.0772275"},{"place_id":"850","name":"PAKIPUNKT Kodila pood","city":"Kodila k\u00fcla","address":"Poe 1","country":"EE","postalcode":"79603","routingcode":"3200","availability":"E-N 9-19 R-L 9-21 P 9-18","description":"Kodila Rummu pood","lat":"59.0405329","lng":"24.6685394"},{"place_id":"851","name":"PAKIPUNKT M\u00e4ek\u00fcla Pizzakiosk","city":"M\u00e4ek\u00fcla","address":"M\u00e4ek\u00fcla","country":"EE","postalcode":"72604","routingcode":{},"availability":"E-P 10.00-21.00","description":"Pizzakiosk","lat":"58.8804652","lng":"25.6904107"},{"place_id":"852","name":"PAKIPUNKT Soodla kauplus","city":"Soodla","address":"Soodla k\u00fcla","country":"EE","postalcode":"74402","routingcode":"3200","availability":"E-L 8.00-19.00 P 10.00-17.00","description":"Soodla kauplus","lat":"59.3871666","lng":"25.364545"},{"place_id":"853","name":"PAKIPUNKT HollyFood restoran","city":"Laeva","address":"Valmaotsa k\u00fcla","country":"EE","postalcode":"60605","routingcode":"3200","availability":"E-N 9.00-18.00 R-P 9.00-20.00","description":"HollyFood restoran","lat":"58.4712327","lng":"26.3596308"},{"place_id":"854","name":"PAKIPUNKT Krootuse kauplus","city":"Krootuse k\u00fcla","address":"Krootuse tee 6","country":"EE","postalcode":"63514","routingcode":"3200","availability":"E-R 10.00-18.00 L-P 10.00-16.00","description":"Krootuse kauplus","lat":"58.0755067","lng":"26.8410178"},{"place_id":"855","name":"PAKIPUNKT Mudiste pood","city":"Mustiste k\u00fcla","address":"Mudiste k\u00fcla","country":"EE","postalcode":"70405","routingcode":"3200","availability":"E-P 10.00-20.00","description":"Mudiste pood","lat":"58.5060845","lng":"25.5875857"},{"place_id":"856","name":"PAKIPUNKT M\u00e4o S\u00e4mmi Grill","city":"M\u00e4o k\u00fcla","address":"Keskuse 1","country":"EE","postalcode":"72751","routingcode":"3200","availability":"E-P 11.00-22.00","description":"M\u00e4o S\u00e4mmi Grill","lat":"58.9092319","lng":"25.6169374"},{"place_id":"857","name":"PAKIPUNKT Padise kruvipood","city":"Padise","address":"Suitsu","country":"EE","postalcode":"76001","routingcode":"3200","availability":"E-R 9.00-18.00 L 10.00-14.00 P-","description":"Padise kruvipood","lat":"59.227064","lng":"24.1640858"},{"place_id":"858","name":"PAKIPUNKT R\u00f5ude kauplus","city":"R\u00f5ude","address":"R\u00f5ude k\u00fcla","country":"EE","postalcode":"90602","routingcode":"3200","availability":"E-L 10.00-18.00 P 10.00-14.00","description":"R\u00f5ude kauplus","lat":"58.7713662","lng":"23.923816"},{"place_id":"859","name":"PAKIPUNKT Leevi pood","city":"Leevi","address":"Posti tee 2b","country":"EE","postalcode":"64231","routingcode":"3200","availability":"E-P 10.00-18.00","description":"Leevi pood","lat":"57.9448016","lng":"27.2280156"},{"place_id":"860","name":"PAKIPUNKT Koeru lillepood","city":"Koeru","address":"Paide tee 2","country":"EE","postalcode":"73001","routingcode":"3200","availability":"E-R 9.00-18.00 L-P 10.00-16.00","description":"Koeru lillepood","lat":"58.9642032","lng":"26.028431"},{"place_id":"861","name":"PAKIPUNKT N\u00f5uni pood","city":"N\u00f5uni","address":"N\u00f5uni k\u00fcla","country":"EE","postalcode":"67515","routingcode":"3200","availability":"E-L 10.00-19.00 P 10.00-16.00","description":"N\u00f5uni pood","lat":"58.1262251","lng":"26.5217678"},{"place_id":"862","name":"PAKIPUNKT T\u00f5stamaa Hepa","city":"T\u00f5stamaa","address":"P\u00e4rnu mnt 21","country":"EE","postalcode":"88101","routingcode":"3200","availability":"E-P 7.00-21.00","description":"T\u00f5stamaa Hepa kauplus","lat":"58.3291548","lng":"24.0147882"},{"place_id":"863","name":"PAKIPUNKT K\u00e4rla tanklakauplus","city":"K\u00e4rla","address":"K\u00e4rla tee 10","country":"EE","postalcode":"93501","routingcode":"3200","availability":"E-P 7.30-21.00","description":"Tanklakauplus","lat":"58.3352039","lng":"22.264335"},{"place_id":"864","name":"PAKIPUNKT Kihelkonna kollane pood","city":"Kihelkonna","address":"Mustjala mnt 1","country":"EE","postalcode":"93401","routingcode":"3200","availability":"E-P 10.00-18.00","description":"Kihelkonna Forsent Grupp toidupood","lat":"58.3602263","lng":"22.0387676"},{"place_id":"865","name":"PAKIPUNKT V\u00e4rska setoman","city":"V\u00e4rska","address":"Silla 6","country":"EE","postalcode":"64001","routingcode":"3200","availability":"E-N 9.00-19.00 R-L 9.00-21.00 P 9.00-19.00","description":"SETO MAN Puhkekeskus","lat":"57.9559408","lng":"27.629443"},{"place_id":"867","name":"PAKIPUNKT Haljala S\u00e4mmi Grill","city":"Haljala","address":"Metsvindi tee 2","country":"EE","postalcode":"45301","routingcode":"3201","availability":"E-P 11:00-22:00","description":"Haljala S\u00e4mmi Grill","lat":"59.425645","lng":"26.2676517"},{"place_id":"868","name":"PAKIPUNKT Ambla Kirsimari","city":"Ambla","address":"Pikk 16","country":"EE","postalcode":"73502","routingcode":"3200","availability":"E-P 11:00-18:00","description":"Ambla Kirsimari","lat":"59.1920098","lng":"25.8397863"},{"place_id":"869","name":"PAKIPUNKT Vaiatu pood","city":"Vaiatu","address":"Vaiatu, J\u00f5geva-Mustvee","country":"EE","postalcode":"48522","routingcode":"3200","availability":"E-P 10:00-22:00","description":"Vaiatu pood","lat":"58.8255851","lng":"26.6527677"},{"place_id":"870","name":"PAKIPUNKT Uhtna pood","city":"Uhtna","address":"M\u00f5isa 1","country":"EE","postalcode":"44202","routingcode":"3200","availability":"E-R 9:00-19:00 L-P 10:00-18:00","description":"Uhtna pood","lat":"59.394415","lng":"26.5660624"},{"place_id":"872","name":"PAKIPUNKT Pajusti Aldar Market","city":"Pajusti","address":"Tartu mnt 13","country":"EE","postalcode":"46603","routingcode":"3200","availability":"E-P 9:00-20:00","description":"Pajusti Aldar Market","lat":"59.282733","lng":"26.4175519"},{"place_id":"873","name":"PAKIPUNKT Lohusuu Aldar Market","city":"Lohusuu","address":"Avinurme tee 2","country":"EE","postalcode":"42001","routingcode":"3200","availability":"E-P 10:00-19:00","description":"Lohusuu Aldar Market","lat":"58.9477496","lng":"27.0484876"},{"place_id":"874","name":"PAKIPUNKT Viru-Jaagupi Aldar Market","city":"Viru-Jaagupi","address":"Kooli tee 4","country":"EE","postalcode":"46604","routingcode":"3200","availability":"E-P 10:00-20:00","description":"Viru-Jaagupi Aldar Market ","lat":"59.2421544","lng":"26.4749731"},{"place_id":"875","name":"PAKIPUNKT Tudu Aldar Market","city":"Tudu","address":"Rakvere mnt 7","country":"EE","postalcode":"46606","routingcode":"3200","availability":"E-P 10:00-21:00","description":"Tudu Aldar Market","lat":"59.1800541","lng":"26.8542657"},{"place_id":"876","name":"PAKIPUNKT Roela Aldar Market","city":"Roela","address":"Tartu mnt 11","country":"EE","postalcode":"46602","routingcode":"3200","availability":"E-P 9:00-20:00","description":"Roela Aldar Market","lat":"59.1650187","lng":"26.5858213"},{"place_id":"877","name":"PAKIPUNKT Laekvere Aldar Market","city":"Laekvere","address":"Salutaguse tee 2","country":"EE","postalcode":"46501","routingcode":"3200","availability":"E-P 9:00-20:00","description":"Laekvere Aldar Market","lat":"59.0671226","lng":"26.5594406"},{"place_id":"878","name":"PAKIPUNKT Tudulinna Aldar Market","city":"Tudulinna","address":"Pikk 8","country":"EE","postalcode":"42202","routingcode":"3200","availability":"E-P 10:00-19:00","description":"Tudulinna Aldar Market","lat":"59.0359205","lng":"27.081465"},{"place_id":"879","name":"PAKIPUNKT M\u00f5isak\u00fcla HEPA","city":"Kamara","address":"Kamara","country":"EE","postalcode":"69304","routingcode":"3200","availability":"E-R 7:00-20:00 L 8:00-21:00 P 10:00-21:00","description":"M\u00f5isak\u00fcla HEPA tankla","lat":"58.1159634","lng":"25.1988558"},{"place_id":"880","name":"PAKIPUNKT Virtsu \u00c4ri","city":"Virtsu","address":"T\u00f6\u00f6stuse 9a","country":"EE","postalcode":"90101","routingcode":"3200","availability":"E-R 10:00-17:00 L 10:00-15:00 P Suletud","description":"Sirje Tamme Virtsu \u00c4ri","lat":"58.5786973","lng":"23.5318763"},{"place_id":"881","name":"PAKIPUNKT Saverna Buffik","city":"Saverna","address":"Suure-Tammiku","country":"EE","postalcode":"63418","routingcode":"3200","availability":"E-N 8:00-20:00 R 8:00-21:00 L 11:00-21:00 P 11:00-20:00","description":"Saverna Buffik","lat":"58.0664268","lng":"26.7294419"},{"place_id":"882","name":"PAKIPUNKT Kanepi Mini Hiir","city":"Kanepi","address":"A. Weizenbergi 25","country":"EE","postalcode":"63101","routingcode":"3200","availability":"E-R 9:00-17:30 L 9:00-15:00 P Suletud","description":"Mini Hiire \u00c4rid","lat":"57.986155","lng":"26.756716"},{"place_id":"883","name":"PAKIPUNKT Anna Kauplus","city":"Anna","address":"Bensiinijaama, Anna k\u00fcla","country":"EE","postalcode":"72601","routingcode":"3200","availability":"E-R 7:00-21:00 L-P 8:00-21:00","description":"Anna bensiinijaam\/pood","lat":"59.0093636","lng":"25.596323"},{"place_id":"884","name":"PAKIPUNKT Kivi-Vigala kauplus","city":"Kivi-Vigala","address":"Kiriku tee 4a","country":"EE","postalcode":"78001","routingcode":"3200","availability":"E-P 10:00-19:00","description":"Kivi-Vigala Kauplus","lat":"58.7124934","lng":"24.36505"},{"place_id":"885","name":"PAKIPUNKT Valgu Kauplus","city":"Valgu","address":"Valgu","country":"EE","postalcode":"78204","routingcode":"3200","availability":"E-L 10:00-19:00 P 10:00-17:00","description":"Valgu Kauplus","lat":"58.8188658","lng":"24.590312"},{"place_id":"887","name":"PAKIPUNKT H\u00e4\u00e4demeeste ehitusmaterjalide kauplus","city":"H\u00e4\u00e4demeeste","address":"P\u00e4rnu mnt 16","country":"EE","postalcode":"86001","routingcode":"3200","availability":"E-R 8:00-17:00 L 9:00-14:00 P Suletud","description":"H\u00e4\u00e4demeeste ehitusmaterjalide ja kodukaupade pood","lat":"58.0832758","lng":"24.5021332"},{"place_id":"888","name":"PAKIPUNKT Oru Hiie pood","city":"Oru","address":"Oru","country":"EE","postalcode":"75103","routingcode":"3200","availability":"E-R 9:00-19:00 L-P 10:00-18:00","description":"Hiie Pood","lat":"59.191027","lng":"24.9892206"},{"place_id":"889","name":"PAKIPUNKT Selja Meierei kauplus","city":"Selja","address":"Rakvere mnt 14","country":"EE","postalcode":"86817","routingcode":"3200","availability":"E-R 9:00-19:00 L 9:00-17:00 P Suletud","description":"Selja Meierei Kauplus","lat":"58.5169472","lng":"24.8187555"},{"place_id":"890","name":"PAKIPUNKT Ahula kauplus","city":"Ahula","address":"Ahula k\u00fcla","country":"EE","postalcode":"73416","routingcode":"3200","availability":"E-R 10.00-18:00 L 10.00-16.00 P -","description":"Ahula kauplus ","lat":"59.1109669","lng":"25.7271925"},{"place_id":"891","name":"PAKIPUNKT Kaalepi kauplus","city":"Kaalepi","address":"Kaalepi k\u00fcla","country":"EE","postalcode":"73403","routingcode":"3200","availability":"E-R 10:00-18:00 L 10:00-16:00 P Suletud","description":"Kaalepi kauplus ","lat":"59.0912836","lng":"25.6827685"},{"place_id":"892","name":"PAKIPUNKT Albu kauplus","city":"Albu","address":"Albu k\u00fcla","country":"EE","postalcode":"73402","routingcode":"3201","availability":"E-R 10:00-18:00 L 10:00-16:00 P Suletud","description":"Albu kauplus ","lat":"59.154858","lng":"25.6569373"},{"place_id":"893","name":"PAKIPUNKT Laukna HEPA","city":"Laukna","address":"Laukna","country":"EE","postalcode":"78101","routingcode":"3200","availability":"E-P 8:00-20:00","description":"Laukna Hepa Tankla ","lat":"58.9177239","lng":"24.1689801"},{"place_id":"895","name":"PAKIPUNKT V\u00f5iste Kohvipood","city":"V\u00f5iste","address":"Riia mnt 7b","country":"EE","postalcode":"86501","routingcode":"3200","availability":"E-P 8:00-22:00","description":"V\u00f5iste Kohvipood","lat":"58.2064072","lng":"24.4851029"},{"place_id":"896","name":"PAKIPUNKT Noarootsi pood","city":"P\u00fcrksi","address":"P\u00fcrksi keskus 8","country":"EE","postalcode":"91201","routingcode":"3200","availability":"E-R 9:00-19:00 L 10:00-17:00 P 10:00-15:00","description":"P\u00fcrksi pood","lat":"59.012506","lng":"23.522089"},{"place_id":"897","name":"PAKIPUNKT Uulu kohvik","city":"Uulu","address":"Uulu k\u00fcla","country":"EE","postalcode":"86502","routingcode":"3200","availability":"E-R 8:00-18:00 L 9:00-17:00 P Suletud","description":"Uulu kohvik","lat":"58.2827784","lng":"24.5756105"},{"place_id":"898","name":"PAKIPUNKT Habaja Tore pood","city":"Habaja","address":"Kose mnt 17","country":"EE","postalcode":"75002","routingcode":"3200","availability":"E-P 11:00-18:00","description":"Tore pood","lat":"59.1069256","lng":"25.1664441"},{"place_id":"899","name":"PAKIPUNKT Kuimetsa kauplus","city":"Kuimetsa","address":"Vahastu tee 25","country":"EE","postalcode":"79302","routingcode":"3200","availability":"E-P 9:00-20:00","description":"Kuimetsa kauplus","lat":"59.041643","lng":"25.1236055"}]}